Krankenhaus,Adresse,n_Betten,url,address,lat,lng
Diakonissenkrankenhaus Flensburg,"Knuthstr. 1, 24939 Flensburg",400.0,http://www.diako.de,"Knuthstr. 1, 24939 Flensburg",54.79041,9.42605
Ev.-luth. Diakonissenanstalt Psychiatrische Tagesklinik für Ältere,"Marienhölzungsweg 8, 24939 Flensburg",19.0,https://www.diako.de/,"Marienhölzungsweg 8, 24939 Flensburg",54.7899352,9.4210084
Ev.-luth. Diakonissenanstalt Tagesklinik für Psychosomatik,"Nehrongsallee 5, 24939 Flensburg",15.0,https://www.diako.de/,"Nehrongsallee 5, 24939 Flensburg",54.7891372,9.4204108
Ev.-luth. Diakonissenanstalt Kinder- und Jugendpsychiatrie,"Marienhölzungsweg 68, 24939 Flensburg",25.0,https://www.diako.de,"Marienhölzungsweg 68, 24939 Flensburg",54.791288,9.4105776
Malteser Krankenhaus St. Franziskus-Hospital,"Waldstraße 17, 24939 Flensburg",363.0,http://www.malteser-franziskus.de/,"Waldstraße 17, 24939 Flensburg",54.7925,9.41987
Malteser Krankenhaus St. Franziskus-Hospital - Geriatrische Tagesklinik,"Am Damm 1, 24837 Schleswig",12.0,http://www.malteser-franziskus.de/,"Am Damm 1, 24837 Schleswig",54.52332,9.56493
Städtisches Krankenhaus Kiel GmbH,"Chemnitzstr. 33, 24116 Kiel",718.0,http://www.krankenhaus-kiel.de,"Chemnitzstr. 33, 24116 Kiel",54.3230743,10.1160949
Park-Klinik GmbH,"Goethestrasse 11, 24116 Kiel",24.0,http://www.park-klinik.de,"Goethestrasse 11, 24116 Kiel",54.3267003,10.1257518
Lubinus Clinicum,"Steenbeker Weg 25, 24106 Kiel",148.0,https://www.lubinus-stiftung.de/start-lubinus-clinicum.html,"Steenbeker Weg 25, 24106 Kiel",54.3537616,10.1169392
Sankt Elisabeth Krankenhaus Kiel,"Königsweg 8, 24103 Kiel",48.0,https://www.lubinus-stiftung.de/start-sek.html,"Königsweg 8, 24103 Kiel",54.31687,10.12719
Klinik Flechsig GmbH,"Chemnitzstraße 33, 24116 Kiel",30.0,http://www.klinik-flechsig.de/,"Chemnitzstraße 33, 24116 Kiel",54.3230743,10.1160949
Kath. Marien-Krankenhaus Lübeck gemeinnützige GmbH,"Parade  3, 23552 Lübeck",52.0,https://www.marien-krankenhaus.de/,"Parade  3, 23552 Lübeck",53.8623919,10.6851174
DRK-Fachklinik Hahnknüll gGmbH,"Hahnknüll 58, 24537 Neumünster",30.0,https://www.drk-nms.de,"Hahnknüll 58, 24537 Neumünster",54.098904,9.9470677
Klinik Dr. Lehmann,"Marienstraße 49-51, 24534 Neumünster",4.0,,"Marienstraße 49-51, 24534 Neumünster",54.0769971,9.9919019
Johanniter-Krankenhaus Geesthacht GmbH,"Am Runden Berge 3, 21502 Geesthacht",188.0,http://www.johanniter-krankenhaus.de,"Am Runden Berge 3, 21502 Geesthacht",53.4316681,10.3854755
Johanniter Tagesklinik Schwarzenbek,"Körnerplatz 6, 21493 Schwarzenbek",16.0,http://www.johanniter-krankenhaus.de,"Körnerplatz 6, 21493 Schwarzenbek",53.50583,10.47872
Johanniter Tagesklnik Mölln,"Wasserkrüger Weg  7, 23879 Mölln",15.0,http://www.johanniter-krankenhaus.de,"Wasserkrüger Weg  7, 23879 Mölln",53.6264232,10.6864624
DRK-Krankenhaus Mölln-Ratzeburg gGmbH,"Röpersberg 2, 23909 Ratzeburg",158.0,http://www.drk-krankenhaus.de,"Röpersberg 2, 23909 Ratzeburg",53.6902743,10.7786876
"Klinikum Nordfriesland gGmbH, Klinik Husum","Erichsenweg 16, 25813 Husum",263.0,http://www.klinikum-nf.de,"Erichsenweg 16, 25813 Husum",54.4830756,9.051448
"Klinikum Nordfriesland gGmbH, Klinik Niebüll","Gather Landstraße 75, 25899 Niebüll",104.0,http://www.klinikum-nf.de,"Gather Landstraße 75, 25899 Niebüll",54.79284,8.84488
"Klinikum Nordfriesland gGmbH, Inselklinik Föhr-Amrum","Rebbelstieg  24, 25938 Wyk",19.0,http://www.klinikum-nf.de,"Rebbelstieg  24, 25938 Wyk",54.68518,8.56424
DIAKO Nordfriesland gGmbH (Fachklinik für Psychiatrie und Psychosomatik - stat. Angebote),"Gammeltoft 8-15, 25821 Breklum",99.0,http://www.diako-nf.de,"Gammeltoft 8-15, 25821 Breklum",54.6176104,8.984646
DIAKO Nordfriesland gGmbH (Tagesklinik Breklum),"Kirchenstraße 7, 25821 Breklum",1.0,http://www.diako-nf.de,"Kirchenstraße 7, 25821 Breklum",54.60688,8.98249
DIAKO Nordfriesland gGmbH (Tagesklinik Husum),"Theodor-Schäfer-Str. 1b, 25813 Husum",1.0,http://www.diako-nf.de,"Theodor-Schäfer-Str. 1b, 25813 Husum",54.48632,9.0506
DIAKO Nordfriesland gGmbH (Tagesklinik Niebüll),"Bahnhofstraße 24a, 25899 Niebüll",1.0,http://www.diako-nf.de,"Bahnhofstraße 24a, 25899 Niebüll",54.7873381,8.8332768
Asklepios Nordseeklinik Westerland/Sylt,"Norderstr. 81, 25980 Sylt/OT Westerland",95.0,http://www.asklepios.com/sylt/akut,"Norderstr. 81, 25980 Sylt/OT Westerland",54.9257293,8.3143
Klinik Dr. Winkler,"Brinckmannstraße 6, 25813 Husum",21.0,http://www.klinik-winkler.de,"Brinckmannstraße 6, 25813 Husum",54.4800828,9.0559668
Sana Kliniken Ostholstein GmbH - Klinik Eutin,"Hospitalstraße 22, 23701 Eutin",197.0,https://www.sana-oh.de,"Hospitalstraße 22, 23701 Eutin",54.132792,10.6007115
Sana Kliniken Ostholstein GmbH - Klinik Oldenburg,"Mühlenkamp 5, 23758 Oldenburg i.H.",151.0,https://www.sana-oh.de,"Mühlenkamp 5, 23758 Oldenburg i.H.",54.2901765,10.8800273
Sana Kliniken Ostholstein GmbH - Inselklinik Fehmarn,"Mummendorfer Weg 12, 23769 Burg auf Fehmarn",28.0,https://www.sana-oh.de,"Mummendorfer Weg 12, 23769 Burg auf Fehmarn",54.4415849,11.1857733
"Sana Kliniken Ostholstein GmbH, Klinik Middelburg","Middelburger Str. 1, 23701 Süsel",100.0,http://www.sana-oh.de,"Middelburger Str. 1, 23701 Süsel",54.0824428,10.6831391
AMEOS Klinikum Neustadt,"Wiesenhof 1, 23730 Neustadt i. H.",276.0,http://www.ameos.eu,"Wiesenhof 1, 23730 Neustadt i. H.",54.1041528,10.795939
AMEOS Klinikum Lübeck,"Kahlhorststraße 33, 23562 Lübeck",276.0,http://www.ameos.eu,"Kahlhorststraße 33, 23562 Lübeck",53.8499862,10.6912242
AMEOS Klinikum Eutin,"Janusstraße 5, 23701 Eutin",276.0,http://www.ameos.eu,"Janusstraße 5, 23701 Eutin",54.1358828,10.6068152
AMEOS Klinikum Heiligenhafen,"Friedrich-Ebert-Straße 100, 23774 Heiligenhafen",332.0,http://www.ameos.eu,"Friedrich-Ebert-Straße 100, 23774 Heiligenhafen",54.37418,10.96229
AMEOS Klinikum Kiel,"Tiroler Ring 621-62, 24147 Kiel",332.0,http://www.ameos.eu,"Tiroler Ring 621-62, 24147 Kiel",54.2966025,10.1851784
AMEOS Klinikum Preetz,"Am Krankenhaus 5a, 24211 Preetz",332.0,http://www.ameos.eu,"Am Krankenhaus 5a, 24211 Preetz",54.23876,10.27638
AMEOS Klinikum Oldenburg,"Hoheluftstraße 10, 23758 Oldenburg i. H.",332.0,http://www.ameos.eu,"Hoheluftstraße 10, 23758 Oldenburg i. H.",54.292246,10.8807749
AMEOS Klinikum Oldenburg,"Mühlenkamp 5, 23758 Oldenburg i. H.",332.0,http://www.ameos.eu,"Mühlenkamp 5, 23758 Oldenburg i. H.",54.2903336,10.8799195
Sankt Elisabeth Krankenhaus Eutin,"Plöner Str. 42, 23701 Eutin",110.0,http://www.sek-eutin.de,"Plöner Str. 42, 23701 Eutin",54.1380501,10.6108502
Helios Agnes Karll Krankenhaus Bad Schwartau,"Am Hochkamp  21, 23611 Bad Schwartau",77.0,https://www.helios-gesundheit.de/kliniken/bad-schwartau/,"Am Hochkamp  21, 23611 Bad Schwartau",53.9223075,10.6940843
AUGUST-BIER-KLINIK - Neurologie und Rehabilitation,"Diekseepromendade 7-11, 23714 Bad Malente-Gremsmühlen",50.0,http://www.august-bier-klinik.de,"Diekseepromendade 7-11, 23714 Bad Malente-Gremsmühlen",54.16482,10.54767
Regio Kliniken GmbH - Klinikum Pinneberg,"Fahltskamp 74, 25421 Pinneberg",322.0,https://www.regiokliniken.de/,"Fahltskamp 74, 25421 Pinneberg",53.6549946,9.8110513
Regio Kliniken GmbH - Klinikum Elmshorn,"Agnes-Karll-Allee 17, 25337 Elmshorn",476.0,https://www.regiokliniken.de/,"Agnes-Karll-Allee 17, 25337 Elmshorn",53.75193,9.68275
Regio Kliniken GmbH - Tagesklinik Norderstedt,"Beim Umspannwerk 6, 22844 Norderstedt",17.0,https://www.regiokliniken.de/,"Beim Umspannwerk 6, 22844 Norderstedt",53.7367988,9.9882154
Klinik Preetz,"Am Krankenhaus 5, 24306 Plön",171.0,http://www.klinik-preetz.de,"Am Krankenhaus 5, 24306 Plön",54.23876,10.27638
Fachklinik Freudenholm-Ruhleben / Klinische Abteilung,"Missionsweg 3, 24306 Bösdorf",45.0,http://www.fachklinik-freudenholm-ruhleben.de,"Missionsweg 3, 24306 Bösdorf",54.13701,10.44597
imland GmbH - imland Klinik Eckernförde,"Schleswiger Str. 114-116, 24340 Eckernförde",226.0,http://www.imland.de,"Schleswiger Str. 114-116, 24340 Eckernförde",54.4823301,9.8178399
imland GmbH - imland Klinik Rendsburg,"Lilienstr. 20-28, 24768 Rendsburg",582.0,http://www.imland.de,"Lilienstr. 20-28, 24768 Rendsburg",54.2970377,9.6579514
HELIOS Klinik Schleswig GmbH,"St. Jürgener Straße 1-3, 24837 Schleswig",327.0,https://www.helios-gesundheit.de/kliniken/schleswig/,"St. Jürgener Straße 1-3, 24837 Schleswig",54.5220092,9.5705316
"HELIOS Fachklinik, Klinik für Erwachsenenpsychiatrie und Psychosomatische Medizin","St. Jürgener Str. 5a, 24837 Schleswig",327.0,https://www.helios-gesundheit.de/kliniken/schleswig/,"St. Jürgener Str. 5a, 24837 Schleswig",54.5220092,9.570532
HELIOS Tagesklinik Psychiatrie (Erwachsene),"Mühlental 1, 24837 Schleswig",20.0,https://www.helios-gesundheit.de/kliniken/schleswig/,"Mühlental 1, 24837 Schleswig",54.5249832,9.5640262
HELIOS Klinik für Kinder- und Jugendpsychiatrie und -Psychotherapie sowie Tagesklinik Baumhaus Schleswig,"Friedrich-Ebert-Straße 5, 24837 Schleswig",307.0,http://www.helios-gesundheit.de/klinik/schleswig.html,"Friedrich-Ebert-Straße 5, 24837 Schleswig",54.520965,9.5501938
"HELIOS Klinik für Kinder- und Jugendpsychiatrie und -Psychotherapie, Tagesklinik Baumhaus Husum","Theodor-Schäfer-Straße 1a, 25813 Husum",25.0,https://www.helios-gesundheit.de/kliniken/schleswig/,"Theodor-Schäfer-Straße 1a, 25813 Husum",54.48634,9.04966
Fachkrankenhaus für Psychiatrie und Psychotherapie und Tagesklinik für Psychiatrie und Psychotherapie,"Johannesallee 9, 24848 Kropp",37.0,http://www.diakonie-kropp.de/,"Johannesallee 9, 24848 Kropp",54.4084099,9.5170093
Margarethen Klinik gemeinnützige GmbH,"Konsul-Lorentzen-Straße 3, 24376 Kappeln",16.0,http://www.margarethen-klinik.de,"Konsul-Lorentzen-Straße 3, 24376 Kappeln",54.65881,9.92441
Medizinische Klinik Borstel,"Parkallee 35, 23845 Borstel",83.0,https://klinik.fz-borstel.de/index.php/de/,"Parkallee 35, 23845 Borstel",53.8211,10.19392
Psychiatrisches Krankenhaus Rickling,"Daldorfer Straße 2, 24635 Rickling",350.0,http://www.pkh-rickling.de,"Daldorfer Straße 2, 24635 Rickling",53.9995278,10.1746951
Klinikum Bad Bramstedt GmbH,"Oskar-Alexander-Straße 26, 24576 Bad Bramstedt",213.0,http://www.klinikumbadbramstedt.de,"Oskar-Alexander-Straße 26, 24576 Bad Bramstedt",53.9041898,9.8942557
SEGEBERGER KLINIKEN GMBH Am Kurpark,"Am Kurpark 1, 23795 Bad Segeberg",230.0,http://www.segebergerkliniken.de,"Am Kurpark 1, 23795 Bad Segeberg",53.94339,10.3083399
PRAXISKLINIK NORDERSTEDT,"Heidbergstraße 98, 22846 Norderstedt",19.0,http://www.segebergerkliniken.de,"Heidbergstraße 98, 22846 Norderstedt",53.7045685,9.994538
AK SEGEBERGER KLINIKEN GMBH,"Krankenhausstraße 2, 23795 Bad Segeberg",192.0,http://www.segebergerkliniken.de,"Krankenhausstraße 2, 23795 Bad Segeberg",53.9413943,10.3096373
Psychosomatische Tagesklinik,"Kurhausstraße 77, 23795 Bad Segeberg",1.0,http://www.segebergerkliniken.de,"Kurhausstraße 77, 23795 Bad Segeberg",53.942501,10.3066061
Neurologisches Zentrum,"Hamdorfer Weg 3, 23795 Bad Segeberg",101.0,http://www.segebergerkliniken.de,"Hamdorfer Weg 3, 23795 Bad Segeberg",53.95199,10.29521
Klinikum Itzehoe,"Robert-Koch-Str. 2, 25524 Itzehoe",600.0,http://www.klinikum-itzehoe.de,"Robert-Koch-Str. 2, 25524 Itzehoe",53.9422269,9.5040823
Krankenhaus Reinbek St. Adolf-Stift GmbH,"Hamburger Straße 41, 21465 Reinbek",351.0,http://www.krankenhaus-reinbek.de,"Hamburger Straße 41, 21465 Reinbek",53.510088,10.240314
DRK-Norddeutsches Epilepsiezentrum für Kinder und Jugendliche,"Henry-Dunant-Str. 6 - 10, 24223 Schwentinental",12.0,http://www.drk-epilepsiezentrum.de,"Henry-Dunant-Str. 6 - 10, 24223 Schwentinental",54.2887332,10.2102964
VAMED Ostseeklinik Damp,"Seute-Deern-Ring 20, 24351 Damp",164.0,https://www.vamed-gesundheit.de/damp-ostseeklinik/,"Seute-Deern-Ring 20, 24351 Damp",54.5863917,10.0226684
Kinderzentrum Pelzerhaken,"Zum Leuchtturm 4, 23730 Neustadt in Holstein",36.0,http://www.kinderzentrum-pelzerhaken.de,"Zum Leuchtturm 4, 23730 Neustadt in Holstein",54.0885636,10.8633871
Paracelsus-Nordseeklinik Helgoland,"Invasorenpfad 1040, 27498 Helgoland",34.0,https://www.paracelsus-kliniken.de/helgoland.html,"Invasorenpfad 1040, 27498 Helgoland",54.1786984,7.8863887
FEK - Friedrich-Ebert-Krankenhaus Neumünster GmbH,"Friesenstraße 11, 24534 Neumünster",640.0,http://www.friedrich-ebert-krankenhaus.de/,"Friesenstraße 11, 24534 Neumünster",54.0656284,9.9929194
CURSCHMANN KLINIK der Klinikgruppe Dr. Guth GmbH &amp; Co. KG,"Saunaring 6, 23669 Timmendorfer Strand",30.0,https://www.drguth.de/curschmann-klinik,"Saunaring 6, 23669 Timmendorfer Strand",53.998146,10.78352
Vorwerker Fachklinik Kinder- und Jugendpsychiatrie (stat. Bereich Lübeck),"Triftstraße 139-143, 23554 Lübeck",47.0,https://www.vorwerker-diakonie.de,"Triftstraße 139-143, 23554 Lübeck",53.89208,10.68109
Vorwerker Fachklinik (Tagesklinik Lübeck),"Triftstraße 139-143, 23554 Lübeck",9.0,https://www.vorwerker-diakonie.de,"Triftstraße 139-143, 23554 Lübeck",53.89208,10.68109
Vorwerker Fachklinik (Tagesklinik Büchen),"Lauenburger Straße 39, 21514 Büchen",10.0,https://www.vorwerker-diakonie.de,"Lauenburger Straße 39, 21514 Büchen",53.4725387,10.6232309
Vorwerker Fachklinik (Tagesklinik Eutin),"Hospitalstraße 22, 23701 Eutin",10.0,https://www.vorwerker-diakonie.de,"Hospitalstraße 22, 23701 Eutin",54.132792,10.6007115
Schön Klinik Neustadt,"Am Kiebitzberg 10, 23730 Neustadt in Holstein",357.0,http://www.schoen-klinik.de,"Am Kiebitzberg 10, 23730 Neustadt in Holstein",54.09088,10.82916
Westküstenklinikum Heide,"Esmarchstraße 50, 25746 Heide",630.0,http://www.westkuestenklinikum.de,"Esmarchstraße 50, 25746 Heide",54.2002794,9.0805534
Westküstenklinikum Brunsbüttel,"Delbrückstrasse 2, 25541 Brunsbüttel",117.0,http://www.westkuestenklinikum.de/,"Delbrückstrasse 2, 25541 Brunsbüttel",53.8996211,9.1456193
Tagesklinik für Psychiatrie und Psychosomatik,"Lindenstraße 1-3, 25746 Heide",1.0,http://www.westkuestenklinikum.de,"Lindenstraße 1-3, 25746 Heide",54.19873,9.08751
Schmerzklinik Kiel,"Heikendorfer Weg 9-27, 24149 Kiel",80.0,https://schmerzklinik.de/,"Heikendorfer Weg 9-27, 24149 Kiel",54.3291447,10.1830323
Praxisklinik Kronshagen,"Eichkoppelweg 74, 24119 Kronshagen",3.0,http://praxisklinik-kronshagen.de/,"Eichkoppelweg 74, 24119 Kronshagen",54.3375844,10.0980155
Krankenhaus Rotes Kreuz Lübeck -Geriatriezentrum-,"Marlistr. 10, 23566 Lübeck",164.0,http://www.geriatrie-luebeck.de,"Marlistr. 10, 23566 Lübeck",53.8729848,10.7085374
Asklepios Klinik Bad Oldesloe,"Schützenstaße 55, 23843 Bad Oldesloe",173.0,http://www.asklepios.com/badoldesloe,"Schützenstaße 55, 23843 Bad Oldesloe",53.8127849,10.3637812
Schön Klinik Bad Bramstedt SE &amp; Co. KG,"Birkenweg 10, 24576 Bad Bramstedt",321.0,http://www.Schoen-Klinik.de/Bad-Bramstedt,"Birkenweg 10, 24576 Bad Bramstedt",53.9043808,9.8880976
Klinik für Geriatrie Ratzeburg GmbH,"Röpersberg 47, 23909 Ratzeburg",69.0,https://www.ameos.eu/standorte/ameos-nord/ratzeburg/klinik-fuer-geriatrie-ratzeburg/,"Röpersberg 47, 23909 Ratzeburg",53.6824566,10.769267
Förde-Klinik ein Haus der Diako Flensburg,"Mürwiker Str. 115, 24943 Flensburg",23.0,http://www.foerde-klinik.de,"Mürwiker Str. 115, 24943 Flensburg",54.80445,9.45567
Henstedt-Ulzburg,"Wilstedter Straße 134, 24558 Henstedt-Ulzburg",184.0,https://www.paracelsus-kliniken.de/henstedt-ulzburg.html,"Wilstedter Straße 134, 24558 Henstedt-Ulzburg",53.7494854,10.0082717
Curtius Klinik GmbH &amp; Co. KG,"Neue Kampstrasse 2, 23714 Bad Malente",176.0,http://www.curtius-klinik.de,"Neue Kampstrasse 2, 23714 Bad Malente",54.171499,10.5659558
Parkklinik Manhagen GmbH &amp; Co. KG,"Sieker Landstraße 19, 22927 Großhansdorf",127.0,http://www.manhagen.de,"Sieker Landstraße 19, 22927 Großhansdorf",53.6633229,10.2572827
Geesthacht,"Johannes-Ritter-Str. 100, 21502 Geesthacht",95.0,https://www.johanniter.de/einrichtungen/krankenhaus/startseite-248224/,"Johannes-Ritter-Str. 100, 21502 Geesthacht",53.4266449,10.3827962
HELIOS Klinik Kiel,"Hamburger Chaussee 77, 24113 Kiel",34.0,http://www.helios-kliniken.de/klinik/kiel.html,"Hamburger Chaussee 77, 24113 Kiel",54.3045243,10.1166708
"VAMED Klinik Geesthacht: Akutbereich, enthalten sind nur die Daten der Patientinnen/Patienten der besonderen Einrichtung, ohne Patientinnen/Patienten aus dem Reha-Bereich","Johannes-Ritter-Straße 100, 21502 Geesthacht",70.0,https://www.vamed-gesundheit.de/geesthacht/,"Johannes-Ritter-Straße 100, 21502 Geesthacht",53.4266449,10.3827962
"UNIVERSITÄTSKLINIKUM Schleswig-Holstein, Campus Kiel","Arnold-Heller-Straße 3, 24105 Kiel",1.095,https://www.uksh.de,"Arnold-Heller-Straße 3, 24105 Kiel",54.3298132,10.1406978
"UNIVERSITÄTSKLINIKUM Schleswig-Holstein, Campus Lübeck","Ratzeburger Allee 160, 23538 Lübeck",1.035,https://www.uksh.de,"Ratzeburger Allee 160, 23538 Lübeck",53.8342754,10.703648
"UNIVERSITÄTSKLINIKUM Schleswig-Holstein, Standort WKK Heide","Esmarchstraße 50, 25746 Heide",1.0,http://www.uksh.de,"Esmarchstraße 50, 25746 Heide",54.2002794,9.0805534
Zentrum für Integrative Psychiatrie Kiel,"Niemannsweg 147, 24105 Kiel",234.0,http://www.zip-kiel.de,"Niemannsweg 147, 24105 Kiel",54.3433174,10.1477113
Psychiatrische Tagesklinik &quot;Villa Karlstal&quot;,"Karlstal 34, 24105 Kiel",25.0,http://www.zip-kiel.de,"Karlstal 34, 24105 Kiel",54.3102969,10.1450104
Tagesklinik Klaus Groth Platz,"Klaus-Groth-Platz 2, 24105 Kiel",20.0,https://www.zip-kiel.de,"Klaus-Groth-Platz 2, 24105 Kiel",54.33212,10.14428
Median Klinik Lübeck,"Weidenweg 9- 15, 23562 Lübeck",27.0,http://www.median-kliniken.de,"Weidenweg 9- 15, 23562 Lübeck",53.8489521,10.692
"Sana Kliniken Lübeck GmbH, Krankenhaus Süd","Kronsforder Allee 71-73, 23560 Lübeck",389.0,http://www.sana-luebeck.de,"Kronsforder Allee 71-73, 23560 Lübeck",53.84896,10.68728
"Sana Kliniken Lübeck GmbH, Praxisklinik Travemünde","Am Dreilingsberg 7, 23570 Travemünde",28.0,http://www.sana-luebeck.de,"Am Dreilingsberg 7, 23570 Travemünde",53.9622747,10.8574202
Augenklinik Rendsburg GmbH,"Jungfernstieg 25, 24768 Rendsburg",20.0,http://www.augenklinik-rd.de,"Jungfernstieg 25, 24768 Rendsburg",54.3006774,9.6658044
Zentrum für Integrative Psychiatrie,"Ratzeburger Allee 160, 23538 Lübeck",167.0,http://www.zip-luebeck.de,"Ratzeburger Allee 160, 23538 Lübeck",53.8342754,10.703648
Psychiatrische Tagesklinik Neumünster gGmbH,"Parkstr. 17, 24534 Neumünster",34.0,http://www.tagesklinik-nms.de,"Parkstr. 17, 24534 Neumünster",54.0745684,9.9880384
Psychiatrisches Krankenhaus Rickling (TK Norderstedt),"Beim Umspannwerk 6 – 8, 22844 Norderstedt",45.0,https://www.tageskliniknorderstedt.de,"Beim Umspannwerk 6 – 8, 22844 Norderstedt",53.7367988,9.9882154
Klinik Klosterstraße GmbH,"Klosterstraße 63-65, 24536 Neumünster",6.0,http://www.klinik-klosterstrasse.de,"Klosterstraße 63-65, 24536 Neumünster",54.07879,9.99475
nordBLICK Augenklinik Bellevue GmbH,"Lindenallee 21/23, 24105 Kiel",18.0,https://augenklinik.nordblick.de,"Lindenallee 21/23, 24105 Kiel",54.34546,10.1488101
Universitätsklinikum Hamburg-Eppendorf,"Martinistraße 52, 20246 Hamburg",1.417,http://www.uke.de,"Martinistraße 52, 20246 Hamburg",53.5902421,9.9785922
Asklepios Klinik St. Georg,"Lohmühlenstr. 5, 20099 Hamburg",695.0,http://www.asklepios.com/sanktgeorg,"Lohmühlenstr. 5, 20099 Hamburg",53.5585033,10.0186905
Asklepios Klinik Barmbek,"Rübenkamp 220, 22291 Hamburg",640.0,http://www.asklepios.com/barmbek,"Rübenkamp 220, 22291 Hamburg",53.6066768,10.037592
Schön Klinik Hamburg Eilbek,"Dehnhaide 120, 22081 Hamburg",761.0,https://www.schoen-klinik.de/hamburg-eilbek,"Dehnhaide 120, 22081 Hamburg",53.5776805,10.0527333
Asklepios Klinik Altona,"Paul-Ehrlich-Straße 1, 22763 Hamburg",657.0,http://www.asklepios.com/altona,"Paul-Ehrlich-Straße 1, 22763 Hamburg",53.5545532,9.9024204
Asklepios Klinikum Harburg,"Eißendorfer Pferdeweg 52, 21075 Hamburg",868.0,http://www.asklepios.com/harburg,"Eißendorfer Pferdeweg 52, 21075 Hamburg",53.4595995,9.9501921
Asklepios Klinikum Harburg - Wilhelmsburg,"Neuhöfer Straße 23, 21107 Hamburg",1.0,http://www.asklepios.com/harburg,"Neuhöfer Straße 23, 21107 Hamburg",53.51039,9.9855806
Asklepios Klinikum Harburg - Neugraben,"Lütt Enn 4, 21149 Hamburg",1.0,http://www.asklepios.com/harburg,"Lütt Enn 4, 21149 Hamburg",53.47145,9.85352
Asklepios Klinikum Harburg - Osdorf,"Kroonhorst 11, 22549 Hamburg",1.0,http://www.asklepios.com/harburg,"Kroonhorst 11, 22549 Hamburg",53.5882456,9.8489628
Asklepios Westklinikum Hamburg GmbH,"Suurheid 20, 22559 Hamburg",517.0,http://www.asklepios.com/westklinikum/,"Suurheid 20, 22559 Hamburg",53.5823709,9.7762841
Asklepios Klinik Wandsbek,"Alphonsstraße 14, 22043 Hamburg",553.0,http://www.asklepios.com/wandsbek/,"Alphonsstraße 14, 22043 Hamburg",53.5698592,10.0884579
Albertinen Krankenhaus,"Süntelstraße 11A, 22457 Hamburg",605.0,http://www.albertinen.de/krankenhaeuser/albertinen_krankenhaus,"Süntelstraße 11A, 22457 Hamburg",53.6310227,9.9050566
Albertinen Haus,"Sellhopsweg 18-22, 22459 Hamburg",127.0,http://www.albertinen.de/krankenhaeuser/geriatrische_klinik,"Sellhopsweg 18-22, 22459 Hamburg",53.62774,9.92902
AKK Altonaer Kinderkrankenhaus gGmbH,"Bleickenallee 38, 22763 Hamburg",236.0,https://kinderkrankenhaus.net,"Bleickenallee 38, 22763 Hamburg",53.5520972,9.9129731
Ev. Amalie Sieveking - Krankenhaus,"Haselkamp 33, 22359 Hamburg",328.0,http://www.amalie.de,"Haselkamp 33, 22359 Hamburg",53.6411947,10.1497472
BG Klinikum Hamburg gGmbH,"Bergedorfer Straße 10, 21033 Hamburg",733.0,http://www.bg-klinikum-hamburg.de/,"Bergedorfer Straße 10, 21033 Hamburg",53.5065191,10.1773655
Evangelisches Krankenhaus Alsterdorf gemeinnützige GmbH,"Elisabeth-Flügge-Straße 1, 22337 Hamburg",252.0,http://www.evangelisches-krankenhaus-alsterdorf.de,"Elisabeth-Flügge-Straße 1, 22337 Hamburg",53.6141746,10.0245764
Heinrich Sengelmann Krankenhaus,"Kayhuder Straße 65, 23863 Bargfeld-Stegen",220.0,https://www.heinrich-sengelmann-kliniken.de,"Kayhuder Straße 65, 23863 Bargfeld-Stegen",53.75758,10.1536299
Heinrich Sengelmann Tagesklinik Ahrensburg,"Carl-Barckmann-Straße 5, 22926 Ahrensburg",1.0,https://www.heinrich-sengelmann-kliniken.de/,"Carl-Barckmann-Straße 5, 22926 Ahrensburg",53.6727594,10.2414833
Heinrich Sengelmann Tagesklinik Reinbek,"Kinauweg 9, 21465 Reinbek",1.0,https://www.heinrich-sengelmann-kliniken.de,"Kinauweg 9, 21465 Reinbek",53.52154,10.24607
Heinrich Sengelmann Tagesklinik Bargteheide,"Mittelweg 5-7, 22941 Bargteheide",1.0,https://www.heinrich-sengelmann-kliniken.de,"Mittelweg 5-7, 22941 Bargteheide",53.7307397,10.2631229
Heinrich Sengelmann Tagesklinik Uhlenhosrt,"Winterhuder Weg 29-31, 22085 Hamburg",1.0,https://www.heinrich-sengelmann-kliniken.de,"Winterhuder Weg 29-31, 22085 Hamburg",53.57438,10.02136
Israelitisches Krankenhaus in Hamburg,"Orchideenstieg 14, 22297 Hamburg",147.0,http://www.ik-h.de/,"Orchideenstieg 14, 22297 Hamburg",53.60604,9.99125
Katholisches Kinderkrankenhaus Wilhelmstift gGmbH,"Liliencronstraße 130, 22149 Hamburg",247.0,http://www.kkh-wilhelmstift.de,"Liliencronstraße 130, 22149 Hamburg",53.5864982,10.1640454
Helios ENDO-Klinik Hamburg,"Holstenstraße 2, 22767 Hamburg",204.0,https://www.helios-gesundheit.de/kliniken/hamburg-endo-klinik/,"Holstenstraße 2, 22767 Hamburg",53.5508395,9.9549819
Krankenhaus Jerusalem,"Moorkamp 2-6, 20357 Hamburg",20.0,http://jerusalem-hamburg.de/,"Moorkamp 2-6, 20357 Hamburg",53.5694277,9.9665138
HELIOS Mariahilf Klinik Hamburg,"Stader Straße 203 c, 21075 Hamburg",176.0,http://www.helios-kliniken.de/klinik/hamburg-mariahilf-klinik.html,"Stader Straße 203 c, 21075 Hamburg",53.4698283,9.9378213
Kath. Marienkrankenhaus gemeinnützige GmbH,"Alfredstraße 9, 22087 Hamburg",585.0,http://www.marienkrankenhaus.org,"Alfredstraße 9, 22087 Hamburg",53.5591559,10.0308533
Wilhelmsburger Krankenhaus Groß-Sand,"Groß-Sand 3, 21107 Hamburg ",208.0,http://www.krankenhaus-gross-sand.de,"Groß-Sand 3, 21107 Hamburg ",53.50357,9.98609
KLINIK DR. GUTH der Klinikgruppe Dr. Guth GmbH &amp; Co. KG,"Jürgensallee 46-48, 22609 Hamburg",100.0,http://www.drguth.de/klinik-dr-guth,"Jürgensallee 46-48, 22609 Hamburg",53.5573798,9.8538028
Krankenhaus Tabea,"Kösterbergstr. 32, 22587 Hamburg",153.0,https://www.tabea-fachklinik.de,"Kösterbergstr. 32, 22587 Hamburg",53.5642171,9.7915684
PRAXISKLINIK MÜMMELMANNSBERG der Klinikgruppe Dr. Guth GmbH &amp; Co. KG,"Oskar-Schlemmer-Str. 9-17, 22115 Hamburg",30.0,https://www.tk-pia-praxisklinik.de/,"Oskar-Schlemmer-Str. 9-17, 22115 Hamburg",53.52739,10.14739
Asklepios Klinik Nord - Heidberg,"Tangstedter Landstraße 400, 22417 Hamburg",664.0,http://www.asklepios.com/nord,"Tangstedter Landstraße 400, 22417 Hamburg",53.6746721,10.0286607
Asklepios Klinik Nord - Ochsenzoll,"Langenhorner Chaussee 560, 22419 Hamburg",624.0,https://www.asklepios.com/nord,"Langenhorner Chaussee 560, 22419 Hamburg",53.6738869,10.0038587
Asklepios Klinik Nord - Wandsbek,"Jüthornstraße 71, 22043 Hamburg",130.0,https://www.asklepios.com/nord,"Jüthornstraße 71, 22043 Hamburg",53.5692594,10.0862819
Asklepios Klinik Nord - TK Volksd.,"Kattjahren 24, 22359 Hamburg",30.0,https://www.asklepios.com/nord,"Kattjahren 24, 22359 Hamburg",53.6524967,10.1616606
Asklepios Klinik Nord - TK Steilshoop,"Steilshooper Straße 293, 22309 Hamburg",25.0,https://www.asklepios.com/nord,"Steilshooper Straße 293, 22309 Hamburg",53.6055854,10.0539262
Asklepios Klinik Nord - TK Horn,"Horner Landstrasse 302-304, 22043 Hamburg",25.0,https://www.asklepios.com/nord,"Horner Landstrasse 302-304, 22043 Hamburg",53.54713,10.085
Asklepios Klinik Nord - TK Alsteror,"Hohen Bleichen 22, 20354 Hamburg",24.0,https://www.asklepios.com/nord,"Hohen Bleichen 22, 20354 Hamburg",53.5538914,9.9874714
Praxis-Klinik Bergedorf,"Alte Holstenstraße 2 und 16, 21031 Hamburg",18.0,http://www.praxis-klinik-bergedorf.de,"Alte Holstenstraße 2 und 16, 21031 Hamburg",53.4939997,10.2064215
"Bethesda - Allgemeines Krankenhaus gGmbH, Bergedorf","Glindersweg 80, 21029 Hamburg",352.0,http://www.klinik-bergedorf.de,"Glindersweg 80, 21029 Hamburg",53.4854055,10.2354138
Universitäres Herz- und Gefäßzentrum UKE Hamburg GmbH,"Martinistraße 52, 20246 Hamburg",270.0,http://www.uhz.de,"Martinistraße 52, 20246 Hamburg",53.5902421,9.9785922
Martini-Klinik am UKE GmbH,"Martinistraße 52, 20246 Hamburg",68.0,http://martini-klinik.de,"Martinistraße 52, 20246 Hamburg",53.5902421,9.9785922
Facharztklinik Hamburg,"Martinistrasse 78, 20251 Hamburg",90.0,http://www.facharztklinik-hamburg.de,"Martinistrasse 78, 20251 Hamburg",53.5883764,9.9726238
AGAPLESION DIAKONIEKLINIKUM HAMBURG,"Hohe Weide 17, 20259 Hamburg",388.0,http://www.d-k-h.de,"Hohe Weide 17, 20259 Hamburg",53.57106,9.96518
Bundeswehrkrankenhaus Hamburg,"Lesserstraße 180, 22049 Hamburg",307.0,http://www.bundeswehrkrankenhaus-hamburg.de,"Lesserstraße 180, 22049 Hamburg",53.5939246,10.0746346
ATOS Klinik Fleetinsel GmbH &amp; Co. KG,"Admiraltätstr.  3-4, 20459 Hamburg",49.0,http://www.atos-kliniken.de,"Admiraltätstr.  3-4, 20459 Hamburg",53.5489214,9.9854358
SKH Stadtteilklinik Hamburg,"Oskar-Schlemmer-Str. 9-17, 22115 Hamburg",15.0,http://www.stadtteilklinik-hamburg.de,"Oskar-Schlemmer-Str. 9-17, 22115 Hamburg",53.52739,10.14739
Psychosomatische Tagesklinik Falkenried,"Jarrestraße 6, 22303 Hamburg",17.0,,"Jarrestraße 6, 22303 Hamburg",53.5837251,10.0203622
Deister Süntel Klinik,"Deisterallee 36, 31848 Bad Münder",50.0,http://www.dsk-bm.de,"Deisterallee 36, 31848 Bad Münder",52.2076742,9.4741281
Klinikum Hann. Münden,"Vogelsang 105, 34346 Hann. Münden",158.0,http://www.khmue.de,"Vogelsang 105, 34346 Hann. Münden",51.39832,9.65841
Klinik für Psychosomatische Medizin und Psychotherapie,"An der Hössen 23, 26655 Westerstede",40.0,https://www.karl-jaspers-klinik.de/,"An der Hössen 23, 26655 Westerstede",53.2567157,7.9168421
AGAPLESION EV. KLINIKUM SCHAUMBURG,"Zum Schaumburger Klinikum 1, 31683 Obernkirchen",437.0,https://www.ev-klinikum-schaumburg.de,"Zum Schaumburger Klinikum 1, 31683 Obernkirchen",52.2647322,9.1056936
Stadtkrankenhaus Delmenhorst GmbH,"Wildeshauser Straße 92, 27753 Delmenhorst",289.0,http://www.jh-del.de,"Wildeshauser Straße 92, 27753 Delmenhorst",53.0447309,8.5912956
HELIOS Klinik Bad Gandersheim,"Albert-Rohloff-Straße 2, 37581 Bad Gandersheim",93.0,http://www.helios-gesundheit.de/klinik/bad-gandersheim.html,"Albert-Rohloff-Straße 2, 37581 Bad Gandersheim",51.87358,10.02702
Asklepios Harzklinik Bad Harzburg,"Ilsenburger Straße 95, 38667 Bad Harzburg",66.0,http://www.asklepios.com/badharzburg,"Ilsenburger Straße 95, 38667 Bad Harzburg",51.8856353,10.5757608
Klinik Dr. Muschinsky,"Wiesenbek 7 - 10, 37431 Bad Lauterberg",32.0,http://www.Muschinsky.de,"Wiesenbek 7 - 10, 37431 Bad Lauterberg",51.62386,10.46877
Diabeteszentrum Bad Lauterberg,"Kirchberg 21, 37431 Bad Lauterberg",62.0,http://www.diabeteszentrum.de,"Kirchberg 21, 37431 Bad Lauterberg",51.627611,10.472202
Städtisches Klinikum Braunschweig gGmbH,"Freisestraße 9/10, 38118 Braunschweig",1.499,http://www.klinikum-braunschweig.de,"Freisestraße 9/10, 38118 Braunschweig",52.2678,10.5101499
Krankenhaus Marienstift,"Helmstedter Str. 35, 38102 Braunschweig",147.0,http://www.marienstift-braunschweig.de,"Helmstedter Str. 35, 38102 Braunschweig",52.2584042,10.5452332
Herzogin Elisabeth Hospital,"Leipziger Str. 24, 38124 Braunschweig",205.0,https://www.heh-bs.de,"Leipziger Str. 24, 38124 Braunschweig",52.2331176,10.5263284
Kirchberg-Klinik Bad Lauterberg,"Kirchberg 7-11, 37431 Bad Lauterberg",35.0,http://www.kirchbergklinik.de,"Kirchberg 7-11, 37431 Bad Lauterberg",51.626,10.46883
Asklepios Harzklinik Clausthal-Zellerfeld,"Windmühlenstraße 1, 38678 Clausthal-Zellerfeld",54.0,http://www.asklepios.com/clausthalzellerfeld,"Windmühlenstraße 1, 38678 Clausthal-Zellerfeld",51.8079108,10.3335158
St. Martini gGmbH Krankenhaus Duderstadt,"Göttinger Str. 34, 37115 Duderstadt",140.0,https://www.krankenhaus-duderstadt.de/,"Göttinger Str. 34, 37115 Duderstadt",51.51672,10.24673
Einbecker BürgerSpital GmbH,"Andershäuser Str. 8, 37574 Einbeck",103.0,http://www.einbecker-buergerspital.de,"Andershäuser Str. 8, 37574 Einbeck",51.83366,9.86862
HELIOS Klinikum Gifhorn GmbH,"Campus 6, 38518 Gifhorn",370.0,https://www.helios-gesundheit.de/kliniken/gifhorn/,"Campus 6, 38518 Gifhorn",52.4971455,10.5487859
Universitätsmedizin Göttingen,"Robert-Koch-Straße 40, 37075 Göttingen",1.563,http://www.med.uni-goettingen.de,"Robert-Koch-Straße 40, 37075 Göttingen",51.5510478,9.9427928
Asklepios Fachklinikum Göttingen,"Rosdorfer Weg 70, 37081 Göttingen",436.0,http://www.asklepios.com/goettingen,"Rosdorfer Weg 70, 37081 Göttingen",51.52517,9.91946
Asklepios Fachklinikum Göttingen - TK Seesen,"Tannenbusch 11, 38723 Seesen",16.0,http://www.asklepios.com/goettingen,"Tannenbusch 11, 38723 Seesen",51.8799576,10.2148506
Asklepios Fachklinikum Göttingen - TK Friedländer Weg,"Friedländer Weg 55, 37085 Göttingen",20.0,http://www.asklepios.com/goettingen,"Friedländer Weg 55, 37085 Göttingen",51.5283098,9.9465858
Evangelisches Krankenhaus Göttingen-Weende gGmbH,"An der Lutter 24, 37075 Göttingen",433.0,http://www.ekweende.de,"An der Lutter 24, 37075 Göttingen",51.5552933,9.9446904
Asklepios Harzklinik Goslar,"Kösliner Straße 12, 38642 Goslar",269.0,http://www.asklepios.com/goslar,"Kösliner Straße 12, 38642 Goslar",51.92842,10.44257
HELIOS St. Marienberg Klinik Helmstedt,"Conringstraße 26, 38350 Helmstedt",315.0,http://www.helios-gesundheit.de/klinik/helmstedt.html,"Conringstraße 26, 38350 Helmstedt",52.2318573,10.9991626
AWO Psychiatriezentrum,"Vor dem Kaiserdom 10, 38154 Königslutter am Elm",705.0,http://www.awo-psychiatriezentrum.de,"Vor dem Kaiserdom 10, 38154 Königslutter am Elm",52.2429534,10.8101773
"DR. FONTHEIM, Klinik für Psychiatrie, Psychotherapie und Psychosomatik","Lindenstraße 15, 38704 Liebenburg",345.0,http://www.fontheim.de,"Lindenstraße 15, 38704 Liebenburg",52.022912,10.4326545
HELIOS Albert-Schweitzer-Klinik Northeim,"Albert-Schweitzer-Weg  1 , 37154 Northeim",210.0,https://www.helios-gesundheit.de/kliniken/Northeim,"Albert-Schweitzer-Weg  1 , 37154 Northeim",51.729988,9.978387
Helios Klinik Herzberg/Osterode,"Dr.-Frössel-Allee 1, 37412 Herzberg am Harz",214.0,http://www.helios-gesundheit.de/herzberg,"Dr.-Frössel-Allee 1, 37412 Herzberg am Harz",51.6694158,10.3434562
Klinikum Peine gGmbH,"Virchowstraße 8h, 31226 Peine",287.0,http://www.klinikum-peine.de,"Virchowstraße 8h, 31226 Peine",52.30322,10.23714
Asklepios Fachklinikum Tiefenbrunn,"Tiefenbrunn _, 37124 Rosdorf",211.0,http://www.asklepios.com/tiefenbrunn,"Tiefenbrunn _, 37124 Rosdorf",51.4993946,9.8700342
St. Elisabeth Krankenhaus Salzgitter gGmbH,"Liebenhaller Str. 20, 38259 Salzgitter",108.0,http://www.st-elisabeth-sz.de,"Liebenhaller Str. 20, 38259 Salzgitter",52.0454884,10.3711719
Helios Klinikum Salzgitter GmbH,"Kattowitzer Str. 191, 38226 Salzgitter",307.0,https://www.helios-gesundheit.de/kliniken/salzgitter/,"Kattowitzer Str. 191, 38226 Salzgitter",52.1549515,10.3195258
Helios Klinik Wittingen GmbH,"Gustav-Dobberkau-Straße 5, 29378 Wittingen",35.0,https://helios-gesundheit.de/kliniken/wittingen/,"Gustav-Dobberkau-Straße 5, 29378 Wittingen",52.7301273,10.7402425
Städtisches Klinikum Wolfenbüttel gGmbH,"Alter Weg 80, 38302 Wolfenbüttel",283.0,http://www.klinikum-wolfenbuettel.de,"Alter Weg 80, 38302 Wolfenbüttel",52.1801956,10.5331339
Klinikum Wolfsburg,"Sauerbruchstraße 7, 38440 Wolfsburg",547.0,http://www.klinikum.wolfsburg.de/startseite/,"Sauerbruchstraße 7, 38440 Wolfsburg",52.413263,10.7688799
Venenzentrum Braunschweig,"Kastanienallee 18-19, 38102 Braunschweig",21.0,https://www.venenzentrum-braunschweig.de/,"Kastanienallee 18-19, 38102 Braunschweig",52.2633747,10.5440417
Asklepios Kliniken Schildautal,"Karl-Herold-Straße 1, 38723 Seesen",319.0,http://www.asklepios.com/seesen,"Karl-Herold-Straße 1, 38723 Seesen",51.8832,10.2169001
Evangelisches Krankenhaus Göttingen-Weende gGmbH - Krankenhaus Neu-Mariahilf,"Waldweg 9, 37073 Göttingen",104.0,http://www.ekweende.de,"Waldweg 9, 37073 Göttingen",51.5416007,9.9427489
Augenklinik Dr. Hoffmann,"Wolfenbütteler Str. 82, 38102 Braunschweig",21.0,http://www.augenklinik-dr-hoffmann.de,"Wolfenbütteler Str. 82, 38102 Braunschweig",52.255517,10.5276412
AGAPLESION KRANKENHAUS NEU BETHLEHEM gGmbH,"Humboldtallee 8, 37073 Göttingen",100.0,http://www.neubethlehem.de,"Humboldtallee 8, 37073 Göttingen",51.54115,9.94344
AMEOS Klinikum Alfeld,"Landrat-Beushausen-Str. 26, 31061 Alfeld",133.0,https://www.ameos.eu/standorte/ameos-west/alfeld/,"Landrat-Beushausen-Str. 26, 31061 Alfeld",51.99421,9.83258
"Kliniken Landkreis Diepholz gGmbH, Klinik Bassum","Marie-Hackfeld-Straße 6, 27211 Bassum",290.0,http://www.kliniken-lkd.de,"Marie-Hackfeld-Straße 6, 27211 Bassum",52.8439184,8.7281468
Krankenhaus Lindenbrunn,"Lindenbrunn 1, 31863 Coppenbrügge",106.0,http://www.krankenhaus-lindenbrunn.de,"Lindenbrunn 1, 31863 Coppenbrügge",52.1095664,9.5498366
"Kliniken Landkreis Diepholz gGmbH, Klinik Diepholz","Eschfeldstaße 8, 49356 Diepholz",130.0,http://www.kliniken-lkd.de,"Eschfeldstaße 8, 49356 Diepholz",52.6107224,8.3767185
Johanniter-Krankenhaus Gronau GmbH,"Johanniterstraße 1-3, 31028 Gronau",111.0,https://www.johanniter-gronau.de,"Johanniterstraße 1-3, 31028 Gronau",52.08279,9.7677401
Gesundheitseinrichtungen Hameln-Pyrmont GmbH - Sana Klinikum Hameln-Pyrmont,"Saint-Maur-Platz 1, 31785 Hameln",402.0,http://www.sana-hm.de,"Saint-Maur-Platz 1, 31785 Hameln",52.107294,9.352046
Sophienklinik GmbH,"Bischofsholer Damm 160, 30173 Hannover",117.0,http://www.sophienklinik.de/,"Bischofsholer Damm 160, 30173 Hannover",52.3622546,9.7773184
DRK-Krankenhaus Clementinenhaus,"Lützerodestraße 1, 30161 Hannover",195.0,http://www.clementinenhaus.de/,"Lützerodestraße 1, 30161 Hannover",52.3868199,9.7449415
Kinder- und Jugendkrankenhaus AUF DER BULT,"Janusz-Korczak-Allee 12, 30173 Hannover",272.0,http://www.auf-der-bult.de/,"Janusz-Korczak-Allee 12, 30173 Hannover",52.3600207,9.7784041
"Kinder- und Jugendkrankenhaus AUF DER BULT, Tagesklinik und Ambulanz Celle","Fritzenwiese 15, 29221 Celle",12.0,https://www.auf-der-bult.de/kinder-und-jugendpsychiatrie-stationen-15-16-17-18-19-und-20/tagesklinik-und-institutsambulanz-celle/,"Fritzenwiese 15, 29221 Celle",52.6273159,10.0839468
DIAKOVERE Henriettenstift,"Marienstraße 72-90, 30171 Hannover",485.0,http://www.diakovere.de/henriettenstift,"Marienstraße 72-90, 30171 Hannover",52.369888,9.753844
DIAKOVERE Friederikenstift,"Humboldtstraße 5, 30169 Hannover",428.0,http://www.diakovere.de/friederikenstift,"Humboldtstraße 5, 30169 Hannover",52.3710925,9.7239772
KRH Klinikum Nordstadt,"Haltenhoffstraße 41, 30167 Hannover",428.0,https://nordstadt.krh.de/,"Haltenhoffstraße 41, 30167 Hannover",52.3917285,9.7135875
Medizinische Hochschule Hannover,"Carl-Neuberg-Straße 1, 30625 Hannover",1.52,http://www.mh-hannover.de,"Carl-Neuberg-Straße 1, 30625 Hannover",52.3834749,9.8047999
Vinzenzkrankenhaus Hannover,"Lange-Feld-Strasse 31, 30559 Hannover",345.0,http://www.vinzenzkrankenhaus.de,"Lange-Feld-Strasse 31, 30559 Hannover",52.35892,9.81466
BDH-Klinik Hessisch Oldendorf gGmbH,"Greitstraße 18-28, 31840 Hessisch Oldendorf",113.0,http://www.bdh-klinik-hessisch-oldendorf.de,"Greitstraße 18-28, 31840 Hessisch Oldendorf",52.17372,9.2483901
St. Bernward Krankenhaus,"Treibestr. 9, 31134 Hildesheim",508.0,https://www.bernward-khs.de/,"Treibestr. 9, 31134 Hildesheim",52.1467412,9.9470766
Helios Klinikum Hildesheim GmbH,"Senator-Braun-Allee 33, 31135 Hildesheim",579.0,https://www.helios-gesundheit.de/kliniken/hildesheim/,"Senator-Braun-Allee 33, 31135 Hildesheim",52.15131,9.9766266
KRH Psychiatrie Langenhagen,"Rohdehof 3, 30853 Langenhagen",184.0,https://psychiatrie-langenhagen.krh.de/,"Rohdehof 3, 30853 Langenhagen",52.4440619,9.7400746
Paracelsus-Klinik am Silbersee,"Oertzeweg 24, 30851 Langenhagen",90.0,https://www.paracelsus-kliniken.de/langenhagen.html,"Oertzeweg 24, 30851 Langenhagen",52.4338222,9.758037
Burghof-Klinik,"Ritterstraße 19, 31737 Rinteln",182.0,http://www.burghof-klinik.de,"Ritterstraße 19, 31737 Rinteln",52.1842867,9.0817163
Klinikum Wahrendorff,"Rudolf-Wahrendorff-Str. 22, 31319 Sehnde OT Ilten",281.0,http://www.wahrendorff.de,"Rudolf-Wahrendorff-Str. 22, 31319 Sehnde OT Ilten",52.3451012,9.9337867
Augenklinik Stadthagen,"Brunnenstr.  12, 31655 Stadthagen",3.0,http://www.augenklinik.org,"Brunnenstr.  12, 31655 Stadthagen",52.31769,9.20642
"Kliniken Landkreis Diepholz gGmbH, Klinik Sulingen","Schmelingstraße 47, 27232 Sulingen",133.0,http://www.kliniken-lkd.de,"Schmelingstraße 47, 27232 Sulingen",52.6836,8.8053299
DIAKOVERE Annastift,"Anna-von-Borries-Straße  1-7, 30625 Hannover",161.0,https://www.diakovere.de/unternehmen-mehr/krankenhaeuser/annastift/,"Anna-von-Borries-Straße  1-7, 30625 Hannover",52.3692602,9.810055
KRH Geriatrie Langenhagen (Akut-Geriatrie),"Rohdehof  3, 30853 Langenhagen",40.0,http://krh.eu/klinikum/GEL/Seiten/default.aspx,"Rohdehof  3, 30853 Langenhagen",52.4440619,9.7400746
Helios Kliniken Mittelweser,"Ziegelkampstr. 39, 31582 Nienburg",285.0,http://www.helios-gesundheit.de/mittelweser,"Ziegelkampstr. 39, 31582 Nienburg",52.6355919,9.2244736
Helios Kliniken Mittelweser,"Holzhäuser Weg 28, 31592 Stolzenau",63.0,http://www.helios-gesundheit.de/mittelweser,"Holzhäuser Weg 28, 31592 Stolzenau",52.51596,9.06834
KRH Klinikum Robert Koch Gehrden,"Von-Reden-Straße 1, 30989 Gehrden",358.0,http://krh.eu/klinikum/RKG/Seiten/default.aspx,"Von-Reden-Straße 1, 30989 Gehrden",52.3031822,9.6005005
KRH Klinikum Agnes Karll Laatzen,"Hildesheimer Straße 158, 30880 Laatzen",246.0,https://laatzen.krh.de/,"Hildesheimer Straße 158, 30880 Laatzen",52.30748,9.7987899
KRH Klinikum Großburgwedel,"Fuhrberger Straße 8, 30938 Burgwedel",223.0,https://grossburgwedel.krh.de/,"Fuhrberger Straße 8, 30938 Burgwedel",52.49634,9.86174
AMEOS Klinikum Hildesheim,"Goslarsche Landstraße 60, 31135 Hildesheim",475.0,https://www.ameos.eu/standorte/ameos-west/hildesheim/,"Goslarsche Landstraße 60, 31135 Hildesheim",52.1464348,9.9842092
KRH Klinikum Neustadt am Rübenberge,"Lindenstraße  75, 31535 Neustadt am Rübenberge",275.0,http://www.krh.eu/klinikum/NRB/Seiten/default.aspx,"Lindenstraße  75, 31535 Neustadt am Rübenberge",52.49346,9.46614
KRH Klinikum Lehrte,"Manskestraße 22, 31275 Lehrte",158.0,https://lehrte.krh.de/,"Manskestraße 22, 31275 Lehrte",52.37997,9.9836
KRH Psychiatrie Wunstorf,"Südstraße  25, 31515 Wunstorf",486.0,https://www.krh.eu,"Südstraße  25, 31515 Wunstorf",52.424376,9.4305263
MEDIAN Zentrum für Verhaltensmedizin Bad Pyrmont - Fachkrankenhaus,"Bombergallee 11, 31812 Bad Pyrmont",73.0,https://www.median-kliniken.de/de/median-zentrum-fuer-verhaltensmedizin-bad-pyrmont-fachkrankenhaus/,"Bombergallee 11, 31812 Bad Pyrmont",51.99116,9.25254
AMEOS Klinikum Hameln,"Wilhelmstraße 5, 31785 Hameln",53.0,https://www.ameos.eu/standorte/ameos-west/hameln/ameos-klinikum-hameln/,"Wilhelmstraße 5, 31785 Hameln",52.1028874,9.3628889
MediClin Klinik für Akutpsychosomatik und Psychotherapie,"Lug ins Land 5, 31848 Bad Münder",49.0,http://www.deister-weser-kliniken.de,"Lug ins Land 5, 31848 Bad Münder",52.20826,9.47127
AGAPLESION EV. BATHILDISKRANKENHAUS gemeinnützige GmbH,"Maulbeerallee 4, 31812 Bad Pyrmont",243.0,http://www.bathildis.de,"Maulbeerallee 4, 31812 Bad Pyrmont",51.98533,9.2738101
AGAPLESION EVANGELISCHES KRANKENHAUS HOLZMINDEN,"Forster Weg  34, 37603 Holzminden",183.0,http://www.evk-holzminden.de/,"Forster Weg  34, 37603 Holzminden",51.83434,9.45476
KRH Klinikum Siloah,"Stadionbrücke  4, 30449 Hannover",555.0,http://krh.eu/siloah,"Stadionbrücke  4, 30449 Hannover",52.3595457,9.7245203
Psychiatrisch-Psychosomatische Klinik Celle,"Schlepegrellstraße 4, 29223 Celle",67.0,http://www.klinikum-celle.de,"Schlepegrellstraße 4, 29223 Celle",52.6281472,10.0873795
"Aller-Weser-Klinik gGmbH, Krankenhaus Achim","Bierdener Mühle 2, 28832 Achim",124.0,http://www.aller-weser-klink.de,"Bierdener Mühle 2, 28832 Achim",53.0183667,9.0049683
Diana Krankenhausbetriebsgesellschaft mbH,"Dahlenburger Straße 2 a, 29549 Bad Bevensen",30.0,http://www.diana-klinik.de/,"Dahlenburger Straße 2 a, 29549 Bad Bevensen",53.08106,10.58888
Falkenried Caduceus Klinik,"Niendorfer Weg 5, 29549 Bad Bevensen",33.0,http://caduceus-klinik.de/,"Niendorfer Weg 5, 29549 Bad Bevensen",53.09065,10.60204
OsteMed Klinik Bremervörde,"Gnarrenburger Straße 117, 27432 Bremervörde",102.0,http://www.ostemed.de,"Gnarrenburger Straße 117, 27432 Bremervörde",53.47135,9.13539
Krankenhaus Buchholz,"Steinbecker Straße 44, 21244 Buchholz in der Nordheide",291.0,http://krankenhaus-buchholz.de,"Steinbecker Straße 44, 21244 Buchholz in der Nordheide",53.3333974,9.8732151
Elbe Klinikum Buxtehude,"Am Krankenhaus 1, 21614 Buxtehude",256.0,http://www.elbekliniken.de,"Am Krankenhaus 1, 21614 Buxtehude",53.46172,9.67518
ALLGEMEINES KRANKENHAUS CELLE,"Siemensplatz 4, 29223 Celle",635.0,http://www.akh-celle.de,"Siemensplatz 4, 29223 Celle",52.6286964,10.0847656
Helios Klinik Cuxhaven GmbH,"Altenwalder Chaussee 10, 27474 Cuxhaven",196.0,http://www.helios-gesundheit.de/cuxhaven,"Altenwalder Chaussee 10, 27474 Cuxhaven",53.8522631,8.6923471
Capio Elbe-Jeetzel-Klinik Dannenberg,"Hermann-Löns-Straße 2, 29451 Dannenberg",100.0,http://www.de.capio.com/,"Hermann-Löns-Straße 2, 29451 Dannenberg",53.0830901,11.0802717
Heidekreis-Klinikum GmbH Krankenhaus Walsrode,"Robert-Koch-Straße  4, 29664 Walsrode",267.0,http://www.heidekreis-klinikum.de,"Robert-Koch-Straße  4, 29664 Walsrode",52.85915,9.58658
Waldklinik Jesteburg,"Kleckerwaldweg 145, 21266 Jesteburg",55.0,http://www.waldklinik-jesteburg.de,"Kleckerwaldweg 145, 21266 Jesteburg",53.3193625,9.9489471
AMEOS Klinikum Seepark Geestland,"Langener Str. 66, 27607 Geestland",252.0,https://www.ameos.eu/standorte/ameos-west/geestland/ameos-klinikum-seepark-geestland/,"Langener Str. 66, 27607 Geestland",53.6160947,8.6316671
Klinik Lilienthal,"Moorhauser Landstraße 3c, 28865 Lilienthal",91.0,http://www.klinik-lilienthal.de,"Moorhauser Landstraße 3c, 28865 Lilienthal",53.1498007,8.9073364
Psychiatrische Klinik Uelzen,"An den Zehn Eichen 50, 29525 Uelzen",132.0,http://www.pk-uelzen.de/,"An den Zehn Eichen 50, 29525 Uelzen",52.96681,10.52842
Klinik Dr.Havemann,"Barckhausenstr. 57, 21335 Lüneburg",7.0,http://www.klinik-havemann.com,"Barckhausenstr. 57, 21335 Lüneburg",53.2381156,10.410462
Psychiatrische Klinik Lüneburg gemeinnützige GmbH,"Am Wienebütteler Weg 1, 21339 Lüneburg",436.0,http://www.pk.lueneburg.de,"Am Wienebütteler Weg 1, 21339 Lüneburg",53.2535914,10.3866786
Städtisches Klinikum Lüneburg gemeinnützige GmbH,"Bögelstraße 1, 21339 Lüneburg",510.0,http://www.klinikum-lueneburg.de,"Bögelstraße 1, 21339 Lüneburg",53.2404103,10.3952698
Kreiskrankenhaus Osterholz,"Am Krankenhaus 4, 27711 Osterholz-Scharmbeck",123.0,https://www.kreiskrankenhaus-osterholz.de,"Am Krankenhaus 4, 27711 Osterholz-Scharmbeck",53.2338029,8.7928951
Capio Krankenhaus Land Hadeln,"Große Ortstraße 85, 21762 Otterndorf",95.0,http://www.capio-krankenhaus-land-hadeln.de,"Große Ortstraße 85, 21762 Otterndorf",53.8121445,8.888306
AGAPLESION DIAKONIEKLINIKUM ROTENBURG gemeinnützige GmbH,"Elise-Averdieck-Str. 17, 27356 Rotenburg (Wümme)",714.0,http://www.diako-online.de,"Elise-Averdieck-Str. 17, 27356 Rotenburg (Wümme)",53.1049967,9.4110786
Heidekreis-Klinikum GmbH Krankenhaus Soltau,"Oeninger Weg  30, 29614 Soltau",133.0,http://www.heidekreis-klinikum.de,"Oeninger Weg  30, 29614 Soltau",52.9893197,9.8559643
Elbe Klinikum Stade,"Bremervörder Straße 111, 21682 Stade",563.0,http://www.elbekliniken.de,"Bremervörder Straße 111, 21682 Stade",53.59571,9.44334
"Aller-Weser-Klinik gGmbH, Krankenhaus Verden","Eitzer Straße 20, 27283 Verden (Aller)",131.0,http://www.aller-weser-klinik.de,"Eitzer Straße 20, 27283 Verden (Aller)",52.9135513,9.2323705
Krankenhaus Winsen ( Luhe ),"Friedrich-Lichtenauer-Allee 1, 21423 Winsen ( Luhe )",255.0,http://krankenhaus-winsen.de,"Friedrich-Lichtenauer-Allee 1, 21423 Winsen ( Luhe )",53.350771,10.2005525
Klinik Fallingbostel,"Kolkweg 1, 29683 Bad Fallingbostel",17.0,http://www.klinikfallingbostel.com/,"Kolkweg 1, 29683 Bad Fallingbostel",52.86903,9.70596
Herz- und Gefäßzentrum Bad Bevensen,"Römstedter Straße 25, 29549 Bad Bevensen",165.0,https://www.hgz-bb.de/,"Römstedter Straße 25, 29549 Bad Bevensen",53.0855833,10.6035984
Orthoklinik Lüneburg GmbH,"Ginsterweg 5-7, 21335 Lüneburg",36.0,http://www.orthoklinik-lueneburg.de,"Ginsterweg 5-7, 21335 Lüneburg",53.2325977,10.3936321
MediClin Klinikum Soltau,"Oeninger Weg 59, 29614 Soltau",59.0,http://www.mediclin.de,"Oeninger Weg 59, 29614 Soltau",52.99415,9.85705
Klinik Dr. med. T. Witwity e.K.,"Neubourgstr. 4, 21682 Stade",17.0,https://www.arthroclinic-witwity.de,"Neubourgstr. 4, 21682 Stade",53.5980656,9.4739118
Klinik Dr. Hancken GmbH,"Harsefelder Str. 8, 21680 Stade",50.0,http://www.hancken.de/,"Harsefelder Str. 8, 21680 Stade",53.5952018,9.47271
Helios Klinikum Uelzen GmbH,"Hagenskamp 34, 29525 Uelzen",316.0,http://www.helios-kliniken.de/klinik/uelzen,"Hagenskamp 34, 29525 Uelzen",52.97182,10.5321899
HELIOS Seehospital Sahlenburg,"Nordheimstraße  201, 27476 Cuxhaven",65.0,http://www.helios-gesundheit.de/sahlenburg.html,"Nordheimstraße  201, 27476 Cuxhaven",53.8653897,8.6003542
MediClin Seepark Klinik,"Sebastian-Kneipp-Str. 1, 29389 Bad Bodenteich",88.0,http://www.seepark-klinik.de/,"Sebastian-Kneipp-Str. 1, 29389 Bad Bodenteich",52.82418,10.68326
Ev. Krankenhaus Ginsterhof GmbH,"Metzendorfer Weg 21, 21224 Rosengarten",160.0,https://ginsterhof.info,"Metzendorfer Weg 21, 21224 Rosengarten",53.40437,9.935
Niels-Stensen-Kliniken Marienhospital Ankum-Bersenbrück GmbH,"Lingener Straße 11, 49577 Ankum",105.0,http://www.niels-stensen-kliniken.de/,"Lingener Straße 11, 49577 Ankum",52.5409,7.87417
"Ubbo-Emmius-Klinik gGmbH, Ostfriesisches Krankenhaus, Klinik Aurich","Wallinghausener Str. 8 - 12, 26603 Aurich",283.0,http://www.u-e-k.de,"Wallinghausener Str. 8 - 12, 26603 Aurich",53.46781,7.4972
Schüchtermann-Klinik,"Ulmenallee 5-11, 49214 Bad Rothenfelde",212.0,http://www.schuechtermann-klinik.de/,"Ulmenallee 5-11, 49214 Bad Rothenfelde",52.11137,8.16266
Augenklinik Dr. Georg,"Am Kurpark 13-15, 49214 Bad Rothenfelde",12.0,http://www.augenklinik-bad-rothenfelde.de,"Am Kurpark 13-15, 49214 Bad Rothenfelde",52.1103097,8.1588201
Karl-Jaspers-Klinik,"Hermann-Ehlers-Straße 7, 26160 Bad Zwischenahn",514.0,https://www.karl-jaspers-klinik.de/,"Hermann-Ehlers-Straße 7, 26160 Bad Zwischenahn",53.1697847,8.140314
Paulinenkrankenhaus Bad Bentheim,"Paulinenweg 1, 48455 Bad Bentheim",41.0,https://www.orthopaedie-badbentheim.de/,"Paulinenweg 1, 48455 Bad Bentheim",52.2991648,7.1503735
St. Bernhard-Hospital gemeinnützige GmbH,"Claußenstraße 3, 26919 Brake",103.0,http://www.krankenhaus-brake.de,"Claußenstraße 3, 26919 Brake",53.3240488,8.482014
Niels-Stensen-Kliniken Bramsche GmbH,"Hasestraße 16, 49565 Bramsche",100.0,http://www.niels-stensen-klinken.de/,"Hasestraße 16, 49565 Bramsche",52.4090661,7.9853872
Krankenhaus St. Elisabeth gGmbH,"Lindenstraße 3-7, 49401 Damme",244.0,http://www.krankenhaus-damme.de,"Lindenstraße 3-7, 49401 Damme",52.52164,8.19453
Klinikum Emden - Hans-Susemihl-Krankenhaus gGmbH,"Bolardusstraße 20, 26721 Emden",370.0,http://www.klinikum-emden.de,"Bolardusstraße 20, 26721 Emden",53.3754445,7.2129241
St.-Marien-Hospital gGmbH,"St.-Marien-Str. 1, 26169 Friesoythe",115.0,http://marienstift-friesoythe.de,"St.-Marien-Str. 1, 26169 Friesoythe",53.0220147,7.8552219
Klinik für Kinder- und Jugendpsychiatrie Wichernstift gGmbH,"Oldenburger Straße 333, 27777 Ganderkesee",80.0,http://www.wichernstift.de,"Oldenburger Straße 333, 27777 Ganderkesee",53.0478,8.57576
Klinikum Osnabrücker Land GmbH,"Hospitalweg 1, 49124 Georgsmarienhütte",80.0,https://www.klinik-akp-gmh.de,"Hospitalweg 1, 49124 Georgsmarienhütte",52.20484,8.04157
Niels-Stensen-Kliniken St.-Vinzenz-Hospital Haselünne GmbH,"Hammer Str. 9, 49740 Haselünne",179.0,http://www.niels-stensen-kliniken.de,"Hammer Str. 9, 49740 Haselünne",52.6710121,7.4826435
Klinikum Leer gGmbH,"Augustenstraße 35 - 37, 26789 Leer",350.0,http://www.klinikum-leer.de,"Augustenstraße 35 - 37, 26789 Leer",53.235916,7.4584306
Borromäus Hospital Leer gGmbH,"Kirchstrasse 61 - 67, 26789 Leer",256.0,http://hospital-leer.de,"Kirchstrasse 61 - 67, 26789 Leer",53.2288434,7.4452996
Bonifatius Hospital Lingen,"Wilhelmstraße 13, 49808 Lingen",401.0,http://www.bonifatius-hospital-lingen.de,"Wilhelmstraße 13, 49808 Lingen",52.5251919,7.3149099
St. Anna Klinik,"St. Annenstr. 9, 49624 Löningen",112.0,http://www.anna-klinik.de,"St. Annenstr. 9, 49624 Löningen",52.7345338,7.7544072
St. Franziskus-Hospital,"Franziskusstr. 6, 49393 Lohne",146.0,https://www.franziskushospital-lohne.de/,"Franziskusstr. 6, 49393 Lohne",52.6648719,8.2410282
Niels-Stensen-Klinikum Christliches Klinikum Melle,"Engelgarten 3, 49324 Melle",182.0,http://niels-stensen-kliniken.de,"Engelgarten 3, 49324 Melle",52.1984929,8.3363867
Krankenhaus Ludmillenstift,"Ludmillenstraße 4-6, 49716 Meppen",420.0,http://www.ludmillenstift.de,"Ludmillenstraße 4-6, 49716 Meppen",52.68888,7.29287
Clemens-August-Klinik,"Wahlde 11, 49434 Neuenkirchen-Vörden",199.0,http://www.clemensaugust.de,"Wahlde 11, 49434 Neuenkirchen-Vörden",52.51188,8.10505
"Ubbo-Emmius-Klinik gGmbH, Ostfriesisches Krankenhaus, Klinik Norden","Osterstr.  110, 26506 Norden",275.0,http://www.u-e-k.de,"Osterstr.  110, 26506 Norden",53.6009,7.21771
Krankenhaus Norderney,"Lippestr. 9-11, 26548 Norderney",64.0,http://www.krankenhaus-norderney.de/,"Lippestr. 9-11, 26548 Norderney",53.71621,7.17233
Helios Klinik Wesermarsch,"Mildred-Scheel-Str. 1, 26954 Nordenham",98.0,http://www.helios-gesundheit.de/wesermarsch,"Mildred-Scheel-Str. 1, 26954 Nordenham",53.4561595,8.4414951
Euregio-Klinik Hannoverstraße GmbH,"Albert-Schweitzer-Straße 10, 48527 Nordhorn",75.0,http://www.euregio-klinik.de,"Albert-Schweitzer-Straße 10, 48527 Nordhorn",52.4427,7.0658
Euregio-Klinik - Psychiatrische Tagesklinik,"Backhuusweg 8, 48531 Nordhorn",20.0,http://www.euregio-klinik.de,"Backhuusweg 8, 48531 Nordhorn",52.4417,7.08052
Euregio-Klinik Albert-Schweitzer-Straße GmbH,"Albert-Schweitzer-Str. 10, 48527 Nordhorn",497.0,http://www.euregio-klinik.de,"Albert-Schweitzer-Str. 10, 48527 Nordhorn",52.4427,7.0658
Klinikum Oldenburg AöR,"Rahel-Straus-Str. 10, 26133 Oldenburg",832.0,http://www.klinikum-oldenburg.de,"Rahel-Straus-Str. 10, 26133 Oldenburg",53.1118423,8.2165264
"Pius-Hospital Oldenburg, Medizinischer Campus Universität Oldenburg","Georgstraße 12, 26121 Oldenburg",395.0,http://www.pius-hospital.de,"Georgstraße 12, 26121 Oldenburg",53.143758,8.210499
Evangelisches Krankenhaus Oldenburg,"Steinweg 13 - 17, 26122 Oldenburg",397.0,http://www.evangelischeskrankenhaus.de,"Steinweg 13 - 17, 26122 Oldenburg",53.1423309,8.205521
Paracelsus-Klinik Osnabrück,"Am Natruper Holz 69, 49076 Osnabrück",164.0,http://www.paracelsus-kliniken.de/osnabrueck,"Am Natruper Holz 69, 49076 Osnabrück",52.288896,8.0111367
Kinderhospital Osnabrück,"Iburger Straße 187, 49082 Osnabrück",74.0,https://www.kinderhospital.de,"Iburger Straße 187, 49082 Osnabrück",52.25199,8.06432
Niels-Stensen-Kliniken Marienhospital Osnabrück,"Bischofsstraße 1, 49074 Osnabrück",525.0,https://www.niels-stensen-kliniken.de/mho,"Bischofsstraße 1, 49074 Osnabrück",52.270847,8.054375
Klinikum Osnabrück GmbH,"Am Finkenhügel 1, 49076 Osnabrück",768.0,http://www.klinikum-osnabrueck.info/cms/,"Am Finkenhügel 1, 49076 Osnabrück",52.2773249,8.003472
Niels-Stensen-Kliniken Krankenhaus St. Raphael Ostercappeln,"Bremer Straße 31, 49179 Ostercappeln",174.0,https://www.niels-stensen-kliniken.de,"Bremer Straße 31, 49179 Ostercappeln",52.3453539,8.2288049
Christliches Krankenhaus Quakenbrück GmbH,"Danziger Straße 2, 49610 Quakenbrück",444.0,http://www.ckq-gmbh.de,"Danziger Straße 2, 49610 Quakenbrück",52.66812,7.93844
Nordwest-Krankenhaus Sanderbusch,"Am Gut Sanderbusch 1, 26452 Sande",355.0,http://www.sanderbusch.de,"Am Gut Sanderbusch 1, 26452 Sande",53.507665,8.006874
Hümmling Hospital Sögel gGmbH,"Mühlenstraße 17, 49751 Sögel",140.0,,"Mühlenstraße 17, 49751 Sögel",52.84326,7.51913
Niels Stensen Kliniken Elisabeth-Kranknehaus Thuine,"Klosterstraße 4, 49832 Thuine",122.0,https://www.niels-stensen-kliniken.de/elisabeth-krankenhaus.html,"Klosterstraße 4, 49832 Thuine",52.4976405,7.4884947
St. Johannes-Hospital gGmbH,"Bleichenpfad 9, 26316 Varel",150.0,http://www.krankenhaus-varel.de,"Bleichenpfad 9, 26316 Varel",53.3924488,8.1394691
St. Marienhospital Vechta,"Marienstraße 6-8, 49377 Vechta",310.0,https://www.marienhospital-vechta.de/,"Marienstraße 6-8, 49377 Vechta",52.72573,8.28672
Krankenhaus Rheiderland,"Neue Straße 22, 26826 Weener",60.0,http://www.krankenhaus-rheiderland.de,"Neue Straße 22, 26826 Weener",53.16801,7.35246
Krankenhaus Johanneum,"Feldstrasse 1, 27793 Wildeshausen",144.0,http://www.krankenhaus-johanneum.de,"Feldstrasse 1, 27793 Wildeshausen",52.89398,8.43175
Klinikum Wilhelmshaven gGmbH (ehem. RNK Städtische Kliniken gGmbH),"Friedrich-Paffrath-Straße 100, 26389 Wilhelmshaven",661.0,http://www.klinikum-whv.de/,"Friedrich-Paffrath-Straße 100, 26389 Wilhelmshaven",53.5456208,8.0829086
Krankenhaus Wittmund gGmbH,"Dohuser Weg 10, 26409 Wittmund",152.0,https://kh-wtm.de/,"Dohuser Weg 10, 26409 Wittmund",53.5718757,7.7885516
Fachklinik Bad Bentheim,"Am Bade 1, 48455 Bad Bentheim",68.0,http://www.fk-bentheim.de,"Am Bade 1, 48455 Bad Bentheim",52.31711,7.16221
St. Josefs-Hospital Cloppenburg,"Krankenhausstraße 13, 49661 Cloppenburg",254.0,https://www.josefshospital-cloppenburg.de/,"Krankenhausstraße 13, 49661 Cloppenburg",52.8472307,8.040256
Niels-Stensen-Kliniken Franziskus-Hospital Harderberg,"Alte Rothenfelder Straße 23, 49124 Georgsmarienhütte",287.0,https://www.niels-stensen-kliniken.de,"Alte Rothenfelder Straße 23, 49124 Georgsmarienhütte",52.237576,8.070831
Ammerland-Klinik Westerstede,"Lange Straße 38, 26655 Westerstede",375.0,http://www.ammerland-klinik.de,"Lange Straße 38, 26655 Westerstede",53.2586065,7.919135
"Johann-Wilhelm-Ritter-Klinik GmbH und Co. KG, Zentrum für dermatologische Phototherapie","Parkstr. 35-37, 49214 Bad Rothenfelde",33.0,http://www.hautklinik.de,"Parkstr. 35-37, 49214 Bad Rothenfelde",52.11343,8.15271
MediClin Hedon Klinik,"Hedonallee 1, 49811 Lingen",105.0,http://www.mediclin.de,"Hedonallee 1, 49811 Lingen",52.51195,7.35889
Marien Hospital Papenburg Aschendorf,"Hauptkanal rechts 74-75, 26871 Papenburg",275.0,http://www.marien-hospital-papenburg.de/,"Hauptkanal rechts 74-75, 26871 Papenburg",53.0615816,7.390229
Westerstede,"Lange Straße 38, 26655 Westerstede",135.0,http://westerstede.bwkrankenhaus.de/,"Lange Straße 38, 26655 Westerstede",53.2586065,7.919135
Christliches Kinderhospital Osnabrück GmbH,"Johannisfreiheit 1, 49074 Osnabrück",146.0,http://www.christliches-kinderhospital.de/,"Johannisfreiheit 1, 49074 Osnabrück",52.2703373,8.0525805
Inselkrankenhaus Borkum,"Gartenstraße 20, 26757 Borkum",8.0,http://www.inselkrankenhaus-borkum.de/kliniken/fuer-ihre-gesundheit.html,"Gartenstraße 20, 26757 Borkum",53.58573,6.67125
STENUM Ortho GmbH,"Heilstättenweg  1, 27777 Ganderkesee",51.0,http://www.stenum-ortho.de/,"Heilstättenweg  1, 27777 Ganderkesee",53.0796,8.5553
AMEOS Klinikum Osnabrück,"Knollstraße 31, 49088 Osnabrück",420.0,http://www.ameos.eu/standorte/ameos-west/osnabrueck/,"Knollstraße 31, 49088 Osnabrück",52.28816,8.05231
Klinikum Bremen-Mitte,"St.-Jürgen-Straße 1, 28205 Bremen",788.0,http://www.gesundheitnord.de/krankenhaeuserundzentren/kbm.html,"St.-Jürgen-Straße 1, 28205 Bremen",53.0723782,8.8353936
Klinikum Bremen-Ost,"Züricher Straße 40, 28325 Bremen",711.0,http://www.Klinikum-Bremen-Ost.de,"Züricher Straße 40, 28325 Bremen",53.0643066,8.9402264
Klinikum Bremen-Nord,"Hammersbecker Straße 228, 28755 Bremen",456.0,http://www.gesundheitnord.de/krankenhaeuserundzentren/kbn/kontakt.html,"Hammersbecker Straße 228, 28755 Bremen",53.1842646,8.5937452
Klinikum Links der Weser,"Senator-Weßling-Str. 1, 28277 Bremen",515.0,http://www.gesundheitnord.de/krankenhaeuserundzentren/ldw/kontakt.html,"Senator-Weßling-Str. 1, 28277 Bremen",53.03564,8.8187
DIAKO Ev. Diakonie-Krankenhaus gemeinnützige GmbH,"Gröpelinger Heerstr.  406, 28239 Bremen",401.0,https://www.diako-bremen.de,"Gröpelinger Heerstr.  406, 28239 Bremen",53.1258999,8.7454274
Krankenhaus St. Joseph-Stift Bremen GmbH,"Schwachhauser Heerstraße 54, 28209 Bremen",448.0,http://www.sjs-bremen.de/,"Schwachhauser Heerstraße 54, 28209 Bremen",53.083867,8.8348364
Rotes Kreuz Krankenhaus Bremen gGmbH,"St.-Pauli-Deich 24, 28199 Bremen",302.0,http://www.roteskreuzkrankenhaus.de,"St.-Pauli-Deich 24, 28199 Bremen",53.0688128,8.8036086
Roland Klinik gGmbH,"Niedersachsendamm 72-74, 28201 Bremen",146.0,http://www.roland-klinik.de,"Niedersachsendamm 72-74, 28201 Bremen",53.0566,8.8239101
AMEOS Klinikum Dr. Heines Bremen,"Rockwinkeler Landstraße 110, 28325 Bremen",230.0,https://www.ameos.eu/standorte/ameos-west/bremen/ameos-klinikum-dr-heines-bremen/,"Rockwinkeler Landstraße 110, 28325 Bremen",53.07565,8.94106
Paracelsus-Klinik Bremen,"In der Vahr 65, 28329 Bremen",70.0,https://www.paracelsus-kliniken.de/bremen.html,"In der Vahr 65, 28329 Bremen",53.0796,8.8774601
Klinikum Bremerhaven Reinkenheide gGmbH,"Postbrookstraße 103, 27574 Bremerhaven",723.0,https://www.klinikum-bremerhaven.de,"Postbrookstraße 103, 27574 Bremerhaven",53.53799,8.6367
AMEOS Klinikum Am Bürgerpark Bremerhaven,"Schiffdorfer Chaussee 29, 27574 Bremerhaven",215.0,http://www.ameos.eu/standorte/ameos-west/bremerhaven/ameos-klinikum-am-buergerpark-bremerhaven/,"Schiffdorfer Chaussee 29, 27574 Bremerhaven",53.5324724,8.60468
AMEOS Klinikum Mitte Bremerhaven,"Wiener Str. 1, 27568 Bremerhaven",182.0,http://www.ameos.eu/standorte/ameos-west/bremerhaven/ameos-klinikum-st-joseph-bremerhaven/,"Wiener Str. 1, 27568 Bremerhaven",53.5522712,8.5751519
Neurologisches Rehabilitationszentrum Godeshöhe e.V.,"Waldstraße 2-10, 53177 Bonn",40.0,http://www.godeshoehe.de,"Waldstraße 2-10, 53177 Bonn",50.68259,7.13635
Rheinisch-Westfälisches Zentrum für Frührehabilitation und Beatmung,"Höhenstraße 30, 51588 Nümbrecht",20.0,http://www.dbkg.de/rwzfb,"Höhenstraße 30, 51588 Nümbrecht",50.9075304,7.5494583
Schön Klinik Düsseldorf,"Am Heerdter Krankenhaus 2, 40549 Düsseldorf",202.0,http://www.schoen-klinik.de,"Am Heerdter Krankenhaus 2, 40549 Düsseldorf",51.2313536,6.727465
Maria-Josef-Hospital Greven GmbH,"Lindenstraße 29, 48286 Greven",188.0,http://www.maria-josef-hospital.de/de/startseite.html,"Lindenstraße 29, 48286 Greven",52.0877862,7.6116249
MediClin Klinik Reichshof,"Berglandstraße 1, 51580 Reichshof",20.0,http://www.klinik-reichshof.de,"Berglandstraße 1, 51580 Reichshof",50.98827,7.68488
St. Mauritius Therapieklinik,"Strümper Str. 111, 40667 Meerbusch",30.0,http://www.stmtk.de,"Strümper Str. 111, 40667 Meerbusch",51.2791502,6.6277324
Evangelisches Krankenhaus Bethanien Iserlohn gGmbH,"Hugo-Fuchs-Allee 3, 58644 Iserlohn",226.0,http://www.bethanien-iserlohn.de,"Hugo-Fuchs-Allee 3, 58644 Iserlohn",51.3707332,7.6945704
AGAPLESION ALLGEMEINES KRANKENHAUS HAGEN gem. GmbH,"Grünstr. 35, 58095 Hagen",454.0,http://www.akh-hagen.de/,"Grünstr. 35, 58095 Hagen",51.3548709,7.4667378
Tagesklinik Lemgo - Tagesklinik für Psychiatrie und Psychosomatik,"Rintelner Str. 83, 32657 Lemgo",20.0,https://www.tk-lemgo.de,"Rintelner Str. 83, 32657 Lemgo",52.0379822,8.9020043
Marienhospital Steinfurt; Krankenhaus Standort Steinfurt,"Mauritiusstr. 5, 48565 Steinfurt",214.0,https://ukm-mhs.de/,"Mauritiusstr. 5, 48565 Steinfurt",52.12711,7.39983
"Marienhospital Steinfurt; Standort Emsdetten, Klinik für Psychosomatik und Psychotherapie","Marienstr. 45, 48282 Emsdetten",54.0,https://ukm-mhs.de,"Marienstr. 45, 48282 Emsdetten",52.1701763,7.5329129
"Marienhospital Steinfurt; Standort Steinfurt, Tagesklinik für Psychosomatik und Psychotherapie","Marienstr. 45, 48282 Emsdetten",16.0,https://ukm-mhs.de,"Marienstr. 45, 48282 Emsdetten",52.1701763,7.5329129
Universitätsklinikum Düsseldorf,"Moorenstraße 5, 40225 Düsseldorf",1.303,http://www.uniklinik-duesseldorf.de/,"Moorenstraße 5, 40225 Düsseldorf",51.1965517,6.7900848
"Sana Kliniken Düsseldorf, Standort Gerresheim","Gräulinger Str. 120, 40625 Düsseldorf",278.0,https://www.sana-gerresheim.de/home.html,"Gräulinger Str. 120, 40625 Düsseldorf",51.24319,6.85757
"Sana Kliniken Düsseldorf, Standort Benrath","Urdenbacher Allee 83, 40593 Düsseldorf",212.0,https://www.sana-benrath.de,"Urdenbacher Allee 83, 40593 Düsseldorf",51.15244,6.8708
St. Martinus-Krankenhaus Düsseldorf,"Gladbacher Strasse 26, 40219 Düsseldorf",209.0,http://www.martinus-duesseldorf.de,"Gladbacher Strasse 26, 40219 Düsseldorf",51.2116909,6.7606608
Marien Hospital Düsseldorf GmbH,"Rochusstr. 2, 40479 Düsseldorf",461.0,http://www.marien-hospital.de,"Rochusstr. 2, 40479 Düsseldorf",51.23597,6.78469
Florence-Nightingale-Krankenhaus,"Kreuzbergstraße 79, 40489 Düsseldorf",556.0,http://www.florence-nightingale-krankenhaus.de,"Kreuzbergstraße 79, 40489 Düsseldorf",51.3004157,6.7494327
Evangelisches Krankenhaus Düsseldorf,"Kirchfeldstr. 40, 40217 Düsseldorf",513.0,https://www.evk-duesseldorf.de,"Kirchfeldstr. 40, 40217 Düsseldorf",51.2130058,6.7730602
Paracelsus Klinik Düsseldorf Golzheim,"Friedrich-Lau-Strasse 11, 40474 Düsseldorf",84.0,http://www.paracelsus-kliniken.de/duesseldorf,"Friedrich-Lau-Strasse 11, 40474 Düsseldorf",51.2541533,6.7594841
LVR-Klinikum Düsseldorf - Kliniken der Heinrich-Heine-Universität Düsseldorf,"Bergische Landstraße 2, 40629 Düsseldorf",639.0,http://www.klinikum-duesseldorf.lvr.de,"Bergische Landstraße 2, 40629 Düsseldorf",51.2414675,6.8450578
Wedau Kliniken,"Zu den Rehwiesen 9-11, 47055 Duisburg",565.0,https://www.sana-duisburg.de/home.html,"Zu den Rehwiesen 9-11, 47055 Duisburg",51.3966252,6.7838815
Bertha Krankenhaus,"Maiblumen Str. 5, 47229 Duisburg",81.0,https://www.sana-duisburg.de/home.html,"Maiblumen Str. 5, 47229 Duisburg",51.3967201,6.7008012
BG Klinikum Duisburg gGmbH,"Großenbaumer Allee 250, 47249 Duisburg",343.0,http://www.bg-klinikum-duisburg.de,"Großenbaumer Allee 250, 47249 Duisburg",51.3806963,6.7855639
Helios St. Johannes Klinik,"An der Abtei 7-11, 47166 Duisburg",645.0,https://www.helios-gesundheit.de/kliniken/duisburg/,"An der Abtei 7-11, 47166 Duisburg",51.4893341,6.7627166
Helios Marien Klinik,"Grunewaldstr. 96, 47053 Duisburg",389.0,https://www.helios-gesundheit.de/kliniken/duisburg/,"Grunewaldstr. 96, 47053 Duisburg",51.4134469,6.7556123
Fachklinik St. Camillus gGmbH,"Kirchstraße 12, 47178 Duisburg",52.0,http://www.camillus-duisburg.de,"Kirchstraße 12, 47178 Duisburg",51.53103,6.70803
Evangelisches Krankenhaus Duisburg Nord,"Fahrner Straße 133-135, 47169 Duisburg",351.0,http://www.evkln.de/,"Fahrner Straße 133-135, 47169 Duisburg",51.5150087,6.7653394
Johanniter Krankenhaus Oberhausen,"Steinbrinkstraße 96a, 46145 Oberhausen",361.0,http://www.evkln.de/,"Steinbrinkstraße 96a, 46145 Oberhausen",51.5091943,6.8543709
Herzzentrum Duisburg,"Gerrickstraße 21, 47137 Duisburg",270.0,http://www.evkln.de/,"Gerrickstraße 21, 47137 Duisburg",51.4624084,6.7754119
Evangelisches Krankenhaus Dinslaken,"Kreuzstraße 28, 46535 Dinslaken",292.0,http://www.evkln.de/,"Kreuzstraße 28, 46535 Dinslaken",51.5587,6.73109
BETHESDA Krankenhaus,"Heerstraße 219, 47053 Duisburg",413.0,http://www.bethesda-krankenhaus-duisburg.de/,"Heerstraße 219, 47053 Duisburg",51.416814,6.7602949
Universitätsklinikum Essen,"Hufelandstr. 55, 45147 Essen",1.975,http://www.uk-essen.de,"Hufelandstr. 55, 45147 Essen",51.4362649,6.9893794
St. Josef Krankenhaus Essen-Werden GmbH,"Propsteistr. 2, 45239 Essen",162.0,http://www.sankt-josef-werden.de,"Propsteistr. 2, 45239 Essen",51.3890403,7.0061123
Elisabeth-Krankenhaus Essen,"Klara-Kopp-Weg 1, 45138 Essen",510.0,https://www.contilia.de/,"Klara-Kopp-Weg 1, 45138 Essen",51.445479,7.0331761
"Elisabeth-Krankenhaus Essen, Geriatriezentrum Haus Berge","Germaniastr. 3, 45356 Essen",100.0,http://www.contilia.de,"Germaniastr. 3, 45356 Essen",51.4794897,6.975797
Alfried Krupp Krankenhaus Steele,"Hellweg 100, 45276 Essen",320.0,https://www.krupp-krankenhaus.de/essen-steele.html,"Hellweg 100, 45276 Essen",51.44984,7.09195
"KEM | Evang. Kliniken Essen-Mitte gGmbH, Standort Evang. Huyssens-Stiftung Essen-Huttrop","Henricistraße 92, 45136 Essen",509.0,http://www.kem-med.com,"Henricistraße 92, 45136 Essen",51.4418248,7.03011
"KEM | Evang. Kliniken Essen-Mitte gGmbH, Standort Evang. Krankenhaus Essen-Steele","Am Deimelsberg 34A, 45276 Essen",187.0,http://www.kem-med.com,"Am Deimelsberg 34A, 45276 Essen",51.4421177,7.0617791
"Evang. Kliniken Essen-Mitte gGmbH, Standort Evang. Krankenhaus Essen-Werden","Pattbergstr. 1-3, 45239 Essen",230.0,http://www.kem-med.com,"Pattbergstr. 1-3, 45239 Essen",51.38981,7.00608
Alfried Krupp Krankenhaus Rüttenscheid,"Alfried-Krupp-Straße  21, 45131 Essen",573.0,https://www.krupp-krankenhaus.de/startseite/alfried-krupp-krankenhaus/alfried-krupp-krankenhaus-ruettenscheid/,"Alfried-Krupp-Straße  21, 45131 Essen",51.4262613,7.0078635
LVR-Klinikum Essen,"Virchowstraße 174, 45147 Essen",320.0,https://klinikum-essen.lvr.de,"Virchowstraße 174, 45147 Essen",51.433738,6.9871585
Helios Klinikum Krefeld,"Lutherplatz 40, 47805 Krefeld",1.002,https://www.helios-gesundheit.de/kliniken/krefeld/,"Lutherplatz 40, 47805 Krefeld",51.3200572,6.5657822
Helios Cäcilien-Hospital Hüls,"Fette Henn 50, 47839 Krefeld-Hüls",170.0,http://www.helios-kliniken.de/klinik/huels.html,"Fette Henn 50, 47839 Krefeld-Hüls",51.37625,6.5146
Helios St. Josefshospital Uerdingen,"Kurfürstenstraße 69, 47829 Krefeld",262.0,https://helios-gesundheit.de/krefeld-uerdingen,"Kurfürstenstraße 69, 47829 Krefeld",51.3523749,6.6480158
Klinik Königshof,"Am Dreifaltigkeitskloster 16, 47807 Krefeld",133.0,http://www.klinik-koenigshof-krefeld.de,"Am Dreifaltigkeitskloster 16, 47807 Krefeld",51.3140305,6.5737205
Tagesklinik Klinik Königshof am Helios Krefeld,"Melanchthonstraße 36, 47805 Krefeld",12.0,http://www.klinik-koenigshof-krefeld.de,"Melanchthonstraße 36, 47805 Krefeld",51.3220673,6.5679794
[2017-10-02 11:07:06] Alexianer Krefeld GmbH - Krankenhaus Maria-Hilf,"Diessemer Bruch 81, 47805 Krefeld",554.0,http://www.alexianer-krefeld.de,"Diessemer Bruch 81, 47805 Krefeld",51.3253027,6.5868139
Städtische Kliniken Mönchengladbach GmbH,"Hubertusstraße 100, 41239 Mönchengladbach",547.0,http://www.sk-mg.de,"Hubertusstraße 100, 41239 Mönchengladbach",51.1579311,6.4190024
Kliniken Maria Hilf GmbH,"Viersener Straße 450, 41063 Mönchengladbach",754.0,http://www.mariahilf.de,"Viersener Straße 450, 41063 Mönchengladbach",51.2190805,6.4192426
Johanniter GmbH - Ev. Krankenhaus Bethesda Mönchengladbach,"Ludwig-Weber-Str. 15, 41061 Mönchengladbach",350.0,http://www.johanniter-kliniken.de,"Ludwig-Weber-Str. 15, 41061 Mönchengladbach",51.1992943,6.4249807
LVR-Klinik Mönchengladbach,"Heinrich-Pesch-Str. 39-41, 41239 Mönchengladbach",226.0,http://www.klinik-moenchengladbach.lvr.de,"Heinrich-Pesch-Str. 39-41, 41239 Mönchengladbach",51.17038,6.43797
St. Marien-Hospital Mülheim an der Ruhr GmbH,"Kaiserstraße 50, 45468 Mülheim an der Ruhr",367.0,http://www.contilia.de/,"Kaiserstraße 50, 45468 Mülheim an der Ruhr",51.42612,6.88749
"St. Marien-Hospital Mülheim an der Ruhr GmbH, Tagesklinik für Psychiatrie und Ps","Muhrenkamp 9, 45468 Mülheim an der Ruhr",30.0,http://www.contilia.de,"Muhrenkamp 9, 45468 Mülheim an der Ruhr",51.425926,6.8851549
Evangelisches Krankenhaus Mülheim an der Ruhr GmbH,"Wertgasse 30, 45468 Mülheim an der Ruhr",602.0,http://www.evkmh.de/,"Wertgasse 30, 45468 Mülheim an der Ruhr",51.4245415,6.8827767
HELIOS St. Elisabeth Klinik Oberhausen,"Josefstraße 3, 46045 Oberhausen",199.0,http://www.helios-gesundheit.de/klinik/oberhausen.html,"Josefstraße 3, 46045 Oberhausen",51.4615461,6.8540757
St. Clemens Hospitale Sterkrade gGmbH,"Wilhelmstraße 34, 46145 Oberhausen",313.0,http://www.kk-ob.de/,"Wilhelmstraße 34, 46145 Oberhausen",51.5175486,6.8447734
St. Josef-Hospital,"Mülheimer Straße 83, 46045 Oberhausen",250.0,http://www.kk-ob.de/,"Mülheimer Straße 83, 46045 Oberhausen",51.4773152,6.8633291
St. Marien-Hospital,"Nürnberger Straße 10, 46117 Oberhausen",135.0,http://kk-ob.de,"Nürnberger Straße 10, 46117 Oberhausen",51.5022487,6.8889622
Evangelisches Krankenhaus Oberhausen GmbH,"Virchowstraße 20, 46047 Oberhausen",452.0,http://www.eko.de,"Virchowstraße 20, 46047 Oberhausen",51.4742352,6.8663508
Sana-Klinikum Remscheid GmbH,"Burger Straße 211, 42859 Remscheid",531.0,https://www.sana-klinikum-remscheid.de/,"Burger Straße 211, 42859 Remscheid",51.1614202,7.1881208
Evangelische Stiftung Tannenhof,"Remscheider Str. 76, 42899 Remscheid",336.0,http://www.stiftung-tannenhof.de,"Remscheider Str. 76, 42899 Remscheid",51.20471,7.2266335
Psychiatrische Fachklinik Langenberg,"Krankenhausstr. 17, 42555 Velbert",76.0,http://www.stiftung-tannenhof.de,"Krankenhausstr. 17, 42555 Velbert",51.35235,7.11242
Psychiatrische Klinik Wuppertal Sanderstr. 7,"Sanderstr. 161, 42283 Wuppertal",58.0,http://www.stiftung-tannenhof.de,"Sanderstr. 161, 42283 Wuppertal",51.2733879,7.1710664
Psychiatrische Tagesklinik Remscheid,"Konrad - Adenauer - Str. 2 - 4, 42853 Remscheid",1.0,http://www.stiftung-tannenhof.de,"Konrad - Adenauer - Str. 2 - 4, 42853 Remscheid",51.18147,7.18994
Gerontopsychiatrische Tagesklinik Wuppertal Hofaue 52,"Hofaue 52, 42103 Wuppertal",1.0,http://www.stiftung-tannenhof.de,"Hofaue 52, 42103 Wuppertal",51.2578314,7.1516989
"Psychiatrische Tagesklinik Wuppertal - Elberfeld, Hofkamp 31 - 35","Hofkamp 31 - 35, 42103 Wuppertal",1.0,http://www.stiftung-tannenhof.de,"Hofkamp 31 - 35, 42103 Wuppertal",51.2591545,7.1506178
"Psychiatrische Tagesklinik Wuppertal - Barmen, Märkische Str. 8","Märkische Str. 8, 42281 Wuppertal",1.0,http://www.stiftung-tannenhof.de,"Märkische Str. 8, 42281 Wuppertal",51.2835236,7.2091799
Psychiatrische Tagesklinik Wuppertal Hofaue 52/Wesendonkstr.7,"Wesendonkstr. 7, 42103 Wuppertal",1.0,http://www.stiftung-tannenhof.de,"Wesendonkstr. 7, 42103 Wuppertal",51.2578861,7.1516289
Städtisches Klinikum Solingen gemeinnützige GmbH,"Gotenstraße 1, 42653 Solingen",658.0,https://www.klinikumsolingen.de,"Gotenstraße 1, 42653 Solingen",51.1850078,7.0698073
St. Lukas Klinik,"Schwanenstraße 132, 42697 Solingen",300.0,http://www.kplusgruppe.de,"Schwanenstraße 132, 42697 Solingen",51.1545081,6.9846172
Krankenhaus Bethanien gGmbH,"Aufderhöher Straße 169-175, 42699 42699",120.0,http://www.klinik-bethanien.de,"Aufderhöher Straße 169-175, 42699 42699",51.1379742,7.0112831
HELIOS Universitätsklinikum Wuppertal GmbH,"Heusnerstr. 40, 42283 Wuppertal",923.0,http://www.helios-gesundheit.de/klinik/wuppertal.html,"Heusnerstr. 40, 42283 Wuppertal",51.2732656,7.172603
"HELIOS Klinikum Wuppertal GmbH Herzzentrum, Standort Elberfeld","Arrenberger Strasse 20, 42117 Wuppertal",150.0,http://www.helios-gesundheit.de/klinik/wuppertal.html,"Arrenberger Strasse 20, 42117 Wuppertal",51.2507302,7.1345378
Helios Universitätsklinikum Wuppertal -Schmerzklinik Bergisch Land,"Im Saalscheid 5, 42369 Wuppertal",5.0,http://www.helios-gesundheit.de/klinik/wuppertal.html,"Im Saalscheid 5, 42369 Wuppertal",51.22481,7.17346
Petrus-Krankenhaus,"Carnaper Straße 48, 42283 Wuppertal",311.0,http://www.petrus-krankenhaus-wuppertal.de/start/,"Carnaper Straße 48, 42283 Wuppertal",51.2762413,7.1915423
Krankenhaus St. Josef,"Bergstraße 6-12, 42105 Wuppertal",176.0,http://www.krankenhaus-st-josef-wuppertal.de/,"Bergstraße 6-12, 42105 Wuppertal",51.2589749,7.1425718
St. Anna-Klinik,"Vogelsangstraße 106, 42109 Wuppertal",35.0,http://www.st-anna-klinik-wuppertal.de/start/,"Vogelsangstraße 106, 42109 Wuppertal",51.2745968,7.1426177
AGAPLESION BETHESDA KRANKENHAUS WUPPERTAL gemeinnützige GmbH,"Hainstrasse 35, 42109 Wuppertal",363.0,http://www.bethesda-wuppertal.de/,"Hainstrasse 35, 42109 Wuppertal",51.2684835,7.1303919
LVR-Klinik Bedburg-Hau,"Bahnstr. 6, 47551 Bedburg-Hau",371.0,http://www.klinik-bedburg-hau.lvr.de,"Bahnstr. 6, 47551 Bedburg-Hau",51.76139,6.17653
St. Willibrord-Spital Emmerich-Rees gGmbH,"Willibrordstraße 9, 46446 Emmerich am Rhein",271.0,http://www.prohomine.de,"Willibrordstraße 9, 46446 Emmerich am Rhein",51.8329873,6.2401291
St.-Clemens-Hospital Geldern,"Clemensstraße 6, 47608 Geldern",312.0,http://www.clemens-hospital.de,"Clemensstraße 6, 47608 Geldern",51.5284612,6.327456
Katholisches Karl-Leisner Klinikum Standort Wilhelm Anton Hospital,"Voßheider Str. 214, 47574 Goch",173.0,http://www.kkle.de,"Voßheider Str. 214, 47574 Goch",51.677187,6.181093
St. Nikolaus-Hospital,"Grabenstr. 86-88, 47546 Kalkar",70.0,http://www.kkle.de,"Grabenstr. 86-88, 47546 Kalkar",51.7400606,6.2932061
Katholisches Karl-Leisner Klinikum gGmbH Standort Marienhospital Kevelaer,"Basilikastraße 55, 47623 Kevelaer",210.0,http://www.kkle.de,"Basilikastraße 55, 47623 Kevelaer",51.5841284,6.249854
Katholisches-Karl-Leisner-Klinikum gGmbH Standort St.-Antonius-Hospital,"Albersallee 5-7, 47533 Kleve",342.0,http://www.kkle.de,"Albersallee 5-7, 47533 Kleve",51.7736213,6.1369685
St. Josefs Krankenhaus Hilden,"Walder Straße 34-38, 40724 Hilden",183.0,http://www.kplusgruppe.de,"Walder Straße 34-38, 40724 Hilden",51.168784,6.9434921
St. Martinus Krankenhaus,"Klosterstrasse 32, 40764 Langenfeld",181.0,http://www.stmartinus-langenfeld.de,"Klosterstrasse 32, 40764 Langenfeld",51.1302517,6.9417078
LVR-Klinik Langenfeld,"Kölner Str. 82, 40764 Langenfeld",463.0,http://www.klinik-langenfeld.lvr.de,"Kölner Str. 82, 40764 Langenfeld",51.09295,6.9583915
Evangelisches Krankenhaus Mettmann GmbH,"Gartenstr. 4-8, 40822 Mettmann",245.0,http://www.evk-mettmann.de,"Gartenstr. 4-8, 40822 Mettmann",51.2513281,6.9705174
Sankt Marien Krankenhaus,"Werdener Straße 3, 40878 Ratingen",191.0,http://www.sankt-marien-ratingen.de/sankt-marien-krankenhaus-ratingen/,"Werdener Straße 3, 40878 Ratingen",51.3001401,6.8521857
Fachklinik 360&amp;deg;,"Rosenstraße 2, 40882 Ratingen",120.0,http://www.fachklinik360grad.de/,"Rosenstraße 2, 40882 Ratingen",51.3002024,6.8589669
Fliedner Krankenhaus,"Thunesweg 58, 40885 Ratingen",160.0,https://www.fliedner.de/de/seelische_gesundheit/fliedner_krankenhaus_ratingen/fliedner_krankenhaus_ratingen.php,"Thunesweg 58, 40885 Ratingen",51.33291,6.81789
Kreiskrankenhaus Grevenbroich St. Elisabeth (ab Aug. 2019: Rheinland Klinikum Grevenbroich Elisabethkrankenhaus),"Von-Werth-Straße 5, 41515 Grevenbroich",308.0,https://rheinlandklinikum.de/,"Von-Werth-Straße 5, 41515 Grevenbroich",51.090878,6.5937697
Johanna-Etienne-Krankenhaus,"Am Hasenberg 46, 41462 Neuss",415.0,http://www.johanna-etienne-krankenhaus.de,"Am Hasenberg 46, 41462 Neuss",51.2135644,6.6595308
Alexius/Josef Krankenhaus,"Nordkanalallee 99, 41464 Neuss",333.0,http://www.psychiatrie-neuss.de,"Nordkanalallee 99, 41464 Neuss",51.1911746,6.7008666
Alexius/Josef Krankenhaus/ Tagesklinik St. Anna,"Am Hasenberg 46, 41462 Neuss",12.0,http://www.psychiatrie-neuss.de,"Am Hasenberg 46, 41462 Neuss",51.2135644,6.6595308
Alexius/Josef Krankenhaus / Tagesklinik St. Augustinus,"Montanusstraße 54, 41515 Grevenbroich",12.0,http://www.psychiatrie-neuss.de,"Montanusstraße 54, 41515 Grevenbroich",51.0901329,6.5961169
Alexius/Josef Krankenhaus - Tagesklinik Benedikt,"Steinhausstraße 40, 41462 Neuss",15.0,http://www.psychiatrie-neuss.de,"Steinhausstraße 40, 41462 Neuss",51.2055279,6.6687066
Alexius/Josef Krankenhaus -Tagesklinik St. Bernhard,"Berghäuschensweg 4, 41464 Neuss",20.0,http://www.psychiatrie-neuss.de,"Berghäuschensweg 4, 41464 Neuss",51.1869,6.70641
Alexius/Josef Krankenhaus - Tagesklinik Luzia,"Elsa-Brändström-Str. 17, 41540 Dormagen",12.0,https://www.psychiatrie-neuss.de,"Elsa-Brändström-Str. 17, 41540 Dormagen",51.0712,6.80948
Alexius/Josef Krankenhaus - Tagesklinik St. Fabiola,"Hindenburgstraße 56, 41352 Korschenbroich",15.0,http://www.psychiatrie-neuss.de,"Hindenburgstraße 56, 41352 Korschenbroich",51.1942794,6.5134597
Hospital zum Heiligen Geist Kempen GmbH &amp; Co. KG,"von-Broichhausen-Allee 1, 47906 Kempen",279.0,http://www.krankenhaus-kempen.de,"von-Broichhausen-Allee 1, 47906 Kempen",51.3629552,6.4117769
Städtisches Krankenhaus Nettetal GmbH,"Sassenfelder Kirchweg 1, 41334 Nettetal",175.0,http://krankenhaus-nettetal.de,"Sassenfelder Kirchweg 1, 41334 Nettetal",51.30893,6.27031
Alexianer Tönisvorst GmbH - Krankenhaus Maria-Hilf,"Hospitalstraße 2, 47918 Tönisvorst",62.0,http://www.alexianer-toenisvorst.de,"Hospitalstraße 2, 47918 Tönisvorst",51.322951,6.489103
LVR-Klinik für Orthopädie Viersen,"Horionstraße 2, 41749 Viersen",78.0,http://www.orthopaedie-viersen.lvr.de,"Horionstraße 2, 41749 Viersen",51.2908998,6.3511857
St. Irmgardis-Krankenhaus Viersen-Süchteln GmbH,"Tönisvorster Str. 26, 41749 Viersen-Süchteln",160.0,http://www.st-irmgardis.de/de/startseite.html,"Tönisvorster Str. 26, 41749 Viersen-Süchteln",51.2860273,6.3744688
Allgemeines Krankenhaus Viersen GmbH,"Hoserkirchweg 63, 41747 Viersen",315.0,http://www.akh-viersen.de,"Hoserkirchweg 63, 41747 Viersen",51.2516138,6.3831512
LVR-Klinik Viersen,"Johannisstraße 70, 41749 Viersen",446.0,http://www.klinik-viersen.lvr.de,"Johannisstraße 70, 41749 Viersen",51.288964,6.3592092
St. Vinzenz-Hospital,"Dr.-Otto-Seidel-Straße 31-33, 46535 Dinslaken",447.0,http://www.st-vinzenz-hospital.de,"Dr.-Otto-Seidel-Straße 31-33, 46535 Dinslaken",51.55896,6.72472
St. Josef Krankenhaus GmbH Moers - Betriebsstätte St. Josef Krankenhaus Moers,"Asberger Str. 4, 47441 Moers",406.0,http://www.st-josef-moers.de,"Asberger Str. 4, 47441 Moers",51.4456362,6.6403923
St. Josef Krankenhaus GmbH Moers - Betriebsstätte St. Nikolaus Hospital,"Orsoyer Str. 55, 47495 Rheinberg",100.0,http://www.st-josef-moers.de,"Orsoyer Str. 55, 47495 Rheinberg",51.5415026,6.608196
Krankenhaus Bethanien für die Grafschaft Moers,"Bethanienstr. 21, 47441 Moers",519.0,http://www.bethanien-moers.de,"Bethanienstr. 21, 47441 Moers",51.46106,6.63421
Marien-Hospital Wesel gGmbH,"Pastor-Janßen-Straße 8-38, 46483 Wesel",424.0,http://www.prohomine.de,"Pastor-Janßen-Straße 8-38, 46483 Wesel",51.6555613,6.611578
Evangelisches Krankenhaus Wesel,"Schermbecker Landstraße  88, 46485 Wesel",356.0,https://evkwesel.de/,"Schermbecker Landstraße  88, 46485 Wesel",51.66002,6.65549
Sankt Josef-Hospital GmbH,"In der Hees 4, 46509 Xanten",160.0,http://www.sankt-josef-hospital.de/,"In der Hees 4, 46509 Xanten",51.6432842,6.4533957
Heilpädagogisch-Psychotherapeutisches Zentrum - Fachklinik für Kinder- und Jugendpsychiatrie und -psychotherapie,"Erfurtweg 28, 42489 Wülfrath",24.0,http://www.bergische-diakonie.de,"Erfurtweg 28, 42489 Wülfrath",51.28634,7.09284
Johanniter-Krankenhaus Rheinhausen GmbH,"Kreuzacker 1-7, 47228 Duisburg",304.0,http://www.johanniter-rheinhausen.de/,"Kreuzacker 1-7, 47228 Duisburg",51.4133311,6.6991756
Kreiskrankenhaus Dormagen (ab Aug. 2019: Rheinland Klinikum Dormagen),"Dr.-Geldmacher-Straße 20, 41540 Dormagen",294.0,https://rheinlandklinikum.de/,"Dr.-Geldmacher-Straße 20, 41540 Dormagen",51.07414,6.80894
CKIP,"Hagelkreuzstr. 37, 40721 Hilden",48.0,http://www.capio-klinik-im-park.de,"Hagelkreuzstr. 37, 40721 Hilden",51.1640319,6.9385459
Johanniter-Tagesklinik Düsseldorf,"Marbacher Str. 79, 40597 Düsseldorf",30.0,http://www.jtk-duesseldorf.de,"Marbacher Str. 79, 40597 Düsseldorf",51.1644,6.8639211
St. Josef Krankenhaus Haan,"Robert-Koch-Straße 16, 42781 Haan",217.0,http://www.kplusgruppe.de,"Robert-Koch-Straße 16, 42781 Haan",51.1990847,7.0213317
Krankenhaus Neuwerk &quot;Maria von den Aposteln&quot; gGmbH,"Dünner Straße 214-216, 41066 Mönchengladbach",310.0,https://www.kh-neuwerk.de,"Dünner Straße 214-216, 41066 Mönchengladbach",51.22443,6.47029
Städtische Kliniken Neuss - Lukaskrankenhaus - GmbH,"Preußenstraße  84, 41464 Neuss",537.0,http://www.lukasneuss.de,"Preußenstraße  84, 41464 Neuss",51.19031,6.67292
Augusta-Krankenhaus,"Amalienstr. 9, 40472 Düsseldorf",200.0,http://www.augusta-duesseldorf.de,"Amalienstr. 9, 40472 Düsseldorf",51.2665093,6.8247428
Krankenhaus Mörsenbroich-Rath GmbH / Marienkankenhaus Kaiserswerth,"An St. Switbert 17, 40489 Düsseldorf",101.0,http://www.marienkrankenhaus-kaiserswerth.de,"An St. Switbert 17, 40489 Düsseldorf",51.3007438,6.7352505
Krankenhaus Elbroich,"Am Falder 6, 40589 Düsseldorf",115.0,http://www.krankenhaus-elbroich.de,"Am Falder 6, 40589 Düsseldorf",51.1746567,6.8247136
St. Vinzenz-Krankenhaus,"Schloßstr. 85, 40477 Düsseldorf",322.0,http://www.vinzenz-duesseldorf.de,"Schloßstr. 85, 40477 Düsseldorf",51.2424,6.79094
Psychosozialer Trägerverein Solingen e.V.,"Eichenstraße 105-109, 42659 Solingen",20.0,http://www.ptv-solingen.de,"Eichenstraße 105-109, 42659 Solingen",51.1526719,7.0895955
Katholisches Klinikum Essen - St. Vincenz Krankenhaus,"Von-Bergmann-Straße 2, 45141 Essen",206.0,https://www.kk-essen.de,"Von-Bergmann-Straße 2, 45141 Essen",51.47493,7.03344
Katholisches Klinikum Essen - Marienhospital Altenessen,"Hospitalstraße 24, 45329 Essen",307.0,https://www.kk-essen.de,"Hospitalstraße 24, 45329 Essen",51.4995885,7.0062487
Katholisches Klinikum Essen - Betriebsteil Philippusstift,"Hülsmannstraße 17, 45355 Essen",477.0,https://www.kk-essen.de,"Hülsmannstraße 17, 45355 Essen",51.4760674,6.949909
Helios Klinikum Niederberg,"Robert-Koch-Straße 2, 42549 Velbert",473.0,https://www.helios-gesundheit.de/kliniken/niederberg/,"Robert-Koch-Straße 2, 42549 Velbert",51.3506097,7.0116907
Katholische Kliniken Ruhrhalbinsel (St. Josef-Krankenhaus Kupferdreh),"Heidbergweg 22-24, 45257 Essen",265.0,http://www.contilia.de,"Heidbergweg 22-24, 45257 Essen",51.39174,7.08568
Katholische Kliniken Ruhrhalbinsel (St. Elisabeth Krankenhaus Niederwenigern),"Essener Str. 31, 45529 Hattingen",178.0,http://contilia.de,"Essener Str. 31, 45529 Hattingen",51.40348,7.13557
Katholische Kliniken Ruhrhalbinsel (Fachklinik Kamillushaus GmbH),"Heidhauser Str. 273, 45239 Essen",30.0,http://www.contilia.de,"Heidhauser Str. 273, 45239 Essen",51.3740586,7.0176387
Luisenkrankenhaus GmbH,"Luise-Rainer-Straße 6-10, 40235 Düsseldorf",20.0,http://www.luisenkrankenhaus.de,"Luise-Rainer-Straße 6-10, 40235 Düsseldorf",51.2340414,6.820747
Alexianer-Klinik Meerbusch GmbH,"Am Eisenbrand 20b/c, 40667 Meerbusch",14.0,,"Am Eisenbrand 20b/c, 40667 Meerbusch",51.24789,6.67438
Rheintor Klinik Städtische Kliniken Neuss - Lukaskrankenhaus - GmbH,"Hafenstraße 68 - 76, 41460 Neuss",18.0,http://www.rheintorklinik.de,"Hafenstraße 68 - 76, 41460 Neuss",51.2022984,6.690364
St. Bernhard-Hospital Kamp-Lintfort GmbH,"Bürgermeister-Schmelzing-Straße 90, 47475 Kamp-Lintfort",356.0,http://www.st-bernhard-hospital.de/startseite.html,"Bürgermeister-Schmelzing-Straße 90, 47475 Kamp-Lintfort",51.4922261,6.5158186
St. Elisabeth-Hospitalgesellschaft Meerbusch-Lank gGmbH,"Hauptstrasse 74, 40668 Meerbusch",88.0,http://www.rrz-meerbusch.de/de/startseite.html,"Hauptstrasse 74, 40668 Meerbusch",51.3053939,6.6774521
Sana Fabricius-Klinik Remscheid GmbH,"Brüderstraße 65, 42853 Remscheid",105.0,http://www.sana-fabricius-remscheid.de,"Brüderstraße 65, 42853 Remscheid",51.1803157,7.180775
Malteser Krankenhaus St. Johannes-Stift,"Johannisstr.  21, 47198 Duisburg",267.0,http://www.malteser-kliniken-rhein-ruhr.de/,"Johannisstr.  21, 47198 Duisburg",51.4531933,6.7103632
Malteser Krankenhaus St. Anna,"Albertus-Magnus Straße  33, 47259 Duisburg",341.0,http://www.malteser-kliniken-rhein-ruhr.de/,"Albertus-Magnus Straße  33, 47259 Duisburg",51.3643421,6.7546015
Uniklinik RWTH Aachen,"Pauwelsstr. 30, 52074 Aachen",1.502,http://www.ukaachen.de/,"Pauwelsstr. 30, 52074 Aachen",50.7768966,6.0433706
Marienhospital Aachen,"Zeise 4, 52066 Aachen",310.0,https://www.marienhospital.de,"Zeise 4, 52066 Aachen",50.76263,6.09448
Franziskushospital Aachen GmbH,"Morillenhang 27, 52074 Aachen",145.0,http://www.franziskushospital.de,"Morillenhang 27, 52074 Aachen",50.7652993,6.06924
Luisenhospital Aachen,"Boxgraben 99, 52064 Aachen",378.0,http://www.luisenhospital.de,"Boxgraben 99, 52064 Aachen",50.76765,6.07675
Alexianer Aachen GmbH,"Alexianergraben 33, 52062 Aachen",260.0,http://www.alexianer-aachen.de,"Alexianergraben 33, 52062 Aachen",50.7721877,6.0816
Universitätsklinikum Bonn,"Venusberg-Campus 1, 53127 Bonn",1.276,http://www.ukbonn.de,"Venusberg-Campus 1, 53127 Bonn",50.7014825,7.1030765
"Gemeinschaftskrankenhaus Bonn gGmbH, Haus St. Elisabeth","Prinz-Albert-Straße 40, 53113 Bonn",209.0,http://www.gk-bonn.de/,"Prinz-Albert-Straße 40, 53113 Bonn",50.7276584,7.103104
"Gemeinschaftskrankenhaus Bonn gGmbH, Haus St. Petrus","Bonner Talweg 4-6, 53113 Bonn",236.0,http://www.gk-bonn.de/,"Bonner Talweg 4-6, 53113 Bonn",50.7289979,7.0982023
Malteser Krankenhaus Seliger Gerhard Bonn/Rhein-Sieg,"Von-Hompesch-Str. 1, 53123 Bonn",381.0,http://www.malteser-krankenhaus-bonn.de,"Von-Hompesch-Str. 1, 53123 Bonn",50.7077,7.0315
GFO Kliniken Bonn - Betriebstätte St. Marien-Hospital,"Robert-Koch-Strasse 1, 53115 Bonn",308.0,http://www.marien-hospital-bonn.de,"Robert-Koch-Strasse 1, 53115 Bonn",50.7171038,7.0938458
GFO Kliniken Bonn - Betriebstätte St. Josef,"Hermannstrasse  37, 53225 Bonn",210.0,http://www.krankenhaus-bonn.de/startseite.html,"Hermannstrasse  37, 53225 Bonn",50.7359589,7.1175917
GFO Kliniken Bonn - Betriebstätte St. Franziskus,"Nikolausstraße 14, 53129 Bonn-Kessenich",40.0,http://www.marien-hospital-bonn.de/fachabteilungen/psychosomatik.html,"Nikolausstraße 14, 53129 Bonn-Kessenich",50.713382,7.1057024
GFO Kliniken Bonn - Betriebsstätte CURA Krankenhaus Bad Honnef,"Schülgenstr. 15, 53604 Bad Honnef",178.0,https://www.cura.org,"Schülgenstr. 15, 53604 Bad Honnef",50.6475603,7.2261457
Johanniter GmbH - Johanniter Krankenhaus Bonn,"Johanniterstr. 3-5, 53113 Bonn",364.0,http://www.johanniter.de/einrichtungen/krankenhaus/bonn/,"Johanniterstr. 3-5, 53113 Bonn",50.7127865,7.1323564
Johanniter GmbH - Waldkrankenhaus Bonn,"Waldstr. 73, 53177 Bonn",288.0,http://www.johanniter.de/einrichtungen/krankenhaus/bonn/,"Waldstr. 73, 53177 Bonn",50.6825539,7.1271066
MediClin Robert Janker Klinik,"Villenstraße 8, 53129 Bonn",83.0,http://www.Robert-Janker-Klinik.de,"Villenstraße 8, 53129 Bonn",50.7043993,7.1103951
LVR-Klinik Bonn,"Kaiser-Karl-Ring 20, 53111 Bonn",680.0,http://www.klinik-bonn.lvr.de,"Kaiser-Karl-Ring 20, 53111 Bonn",50.7477016,7.0883949
Universitätsklinikum Köln,"Kerpener Straße 62, 50937 Köln",1.455,https://www.uk-koeln.de/,"Kerpener Straße 62, 50937 Köln",50.9233387,6.9176031
Kliniken der Stadt Köln gGmbH - Krankenhaus Holweide,"Neufelder Straße 32, 51067 Köln",407.0,http://www.kliniken-koeln.de,"Neufelder Straße 32, 51067 Köln",50.9667756,7.0559869
Eduardus-Krankenhaus gGmbH,"Custodisstr. 3-17, 50679 Köln",212.0,http://www.eduardus.de,"Custodisstr. 3-17, 50679 Köln",50.93278,6.98031
St. Agatha Krankenhaus Köln,"Feldgärtenstraße 97, 50735 Köln",159.0,https://www.st-agatha-krankenhaus.de/,"Feldgärtenstraße 97, 50735 Köln",50.9872594,6.9611023
Heilig Geist-Krankenhaus,"Graseggerstr. 105, 50737 Köln",291.0,http://www.hgk-koeln.de/,"Graseggerstr. 105, 50737 Köln",50.9926051,6.9247906
Krankenhaus der Augustinerinnen,"Jakobstr. 27-31, 50678 Köln",300.0,http://www.severinskloesterchen.de,"Jakobstr. 27-31, 50678 Köln",50.9248061,6.9557981
St. Marien-Hospital,"Kunibertskloster 11-13, 50668 Köln",226.0,http://www.st-marien-hospital.de,"Kunibertskloster 11-13, 50668 Köln",50.94732,6.96234
St. Vinzenz-Hospital,"Merheimer Str. 221-223, 50733 Köln",310.0,http://www.vinzenz-hospital.de/,"Merheimer Str. 221-223, 50733 Köln",50.96697,6.9469
"St. Antonius Krankenhaus, Köln, gGmbH","Schillerstrasse 23, 50968 Köln",222.0,http://www.antonius-koeln.de,"Schillerstrasse 23, 50968 Köln",50.9100524,6.9665887
St. Franziskus-Hospital,"Schönsteinstr. 63, 50825 Köln Ehrenfeld",300.0,http://www.stfranziskus.de/,"Schönsteinstr. 63, 50825 Köln Ehrenfeld",50.9540995,6.917546
St. Elisabeth-Krankenhaus Köln GmbH,"Werthmannstr. 1, 50935 Köln",392.0,http://www.hohenlind.de,"Werthmannstr. 1, 50935 Köln",50.923663,6.8974745
Evangelisches Krankenhaus Kalk gGmbH,"Buchforststr. 2, 51103 Köln",325.0,https://www.evkk.de,"Buchforststr. 2, 51103 Köln",50.94127,7.0092
Evangelisches Klinikum Köln Weyertal GmbH,"Weyertal 76, 50931 Köln",190.0,http://www.evk-koeln.de,"Weyertal 76, 50931 Köln",50.9278,6.92501
Krankenhaus Porz am Rhein gGmbH,"Urbacher Weg 19, 51149 Köln",420.0,https://www.khporz.de/,"Urbacher Weg 19, 51149 Köln",50.89273,7.05084
LVR-Klinik Köln,"Wilhelm-Griesinger Str. 23, 51109 Köln",526.0,http://www.klinik-koeln.lvr.de,"Wilhelm-Griesinger Str. 23, 51109 Köln",50.9349467,7.0521397
Alexianer Krankenhaus Köln,"Kölner Str. 64, 51149 Köln",189.0,http://www.alexianer-koeln.de,"Kölner Str. 64, 51149 Köln",50.89724,7.0429
Klinikum Leverkusen gGmbH,"Am Gesundheitspark 11, 51375 Leverkusen",740.0,http://www.klinikum-lev.de,"Am Gesundheitspark 11, 51375 Leverkusen",51.0307424,7.0343799
St. Remigius Krankenhaus Opladen,"An St. Remigius  26, 51379 Leverkusen",257.0,http://www.kplusgruppe.de,"An St. Remigius  26, 51379 Leverkusen",51.0684731,7.0050565
St. Josef Krankenhaus Wiesdorf,"Adolfsstraße 15, 51373 Leverkusen",107.0,http://www.kplusgruppe.de,"Adolfsstraße 15, 51373 Leverkusen",51.031524,6.975473
St.-Antonius-Hospital gGmbh,"Dechant-Deckers-Str. 8, 52249 Eschweiler",398.0,http://www.sah-eschweiler.de,"Dechant-Deckers-Str. 8, 52249 Eschweiler",50.8183907,6.2644029
Eifelklinik St. Brigida GmbH &amp; Co. KG,"Kammerbruchstraße 8, 52152 Simmerath",125.0,https://www.st-brigida.de,"Kammerbruchstraße 8, 52152 Simmerath",50.6044327,6.301399
Bethlehem Gesundheitszentrum Stolberg,"Steinfeldstraße 5, 52222 Stolberg (Rheinl.)",263.0,http://www.bethlehem.de,"Steinfeldstraße 5, 52222 Stolberg (Rheinl.)",50.7728212,6.229587
Krankenhaus Düren gem. GmbH,"Roonstraße 30, 52351 Düren",449.0,http://www.krankenhaus-dueren.de,"Roonstraße 30, 52351 Düren",50.80873,6.49902
St. Marien-Hospital gGmbH,"Hospitalstr. 44, 52353 Düren-Birkesdorf",381.0,http://www.marien-hospital-dueren.de,"Hospitalstr. 44, 52353 Düren-Birkesdorf",50.821947,6.4673851
St. Augustinus Krankenhaus gGmbH,"Renkerstraße 45, 52355 Düren",288.0,http://www.ct-west.de/st-augustinus-krankenhaus-dueren/,"Renkerstraße 45, 52355 Düren",50.77061,6.48759
LVR-Klinik Düren,"Meckerstraße 15, 52353 Düren",531.0,http://www.klinik-dueren.lvr.de,"Meckerstraße 15, 52353 Düren",50.817096,6.4819493
St. Josef-Krankenhaus,"Rurdorfer Straße 49, 52441 Linnich",132.0,https://www.krankenhaus-linnich.de/,"Rurdorfer Straße 49, 52441 Linnich",50.9767009,6.2686296
St. Hubertus-Stift GmbH,"Klosterstraße 2, 50181 Bedburg",80.0,http://www.st-hubertusstift.de,"Klosterstraße 2, 50181 Bedburg",50.9980469,6.5791785
Maria-Hilf-Krankenhaus,"Klosterstraße 2, 50126 Bergheim",205.0,http://www.maria-Hilf-krankenhaus.de,"Klosterstraße 2, 50126 Bergheim",50.95256,6.6381
Marienhospital Brühl,"Mühlenstrasse 21-25, 50321 Brühl",232.0,http://www.marienhospital-bruehl.info/startseite.html,"Mühlenstrasse 21-25, 50321 Brühl",50.82747,6.90161
Johanniter-Tagesklinik Siegburg gGmbH - Klinik für Psychiatrie und Psychotherapie,"Mühlengrabenstraße 2, 53721 Siegburg",1.0,http://www.tagesklinik-siegburg.de,"Mühlengrabenstraße 2, 53721 Siegburg",50.7885459,7.218757
Marien-Hospital Erftstadt-Frauenthal,"Münchweg 3, 50374 Erftstadt",125.0,http://www.marienerft.de,"Münchweg 3, 50374 Erftstadt",50.80848,6.80923
St.-Katharinen-Hospital GmbH,"Kapellenstr. 1-5, 50226 Frechen",431.0,http://www.st-katharinen-hospital.de/,"Kapellenstr. 1-5, 50226 Frechen",50.92284,6.81209
Sana-Krankenhaus Hürth,"Krankenhausstr. 42, 50354 Hürth",140.0,http://www.sana-huerth.de,"Krankenhausstr. 42, 50354 Hürth",50.8840526,6.8867594
Dreifaltigkeits-Krankenhaus Wesseling,"Bonner Straße 84, 50389 Wesseling",186.0,http://www.krankenhaus-wesseling.de,"Bonner Straße 84, 50389 Wesseling",50.82204,6.98623
Marien-Hospital,"Gottfried-Disse-Straße 40, 53879 Euskirchen",445.0,http://www.marien-hospital.com,"Gottfried-Disse-Straße 40, 53879 Euskirchen",50.6425485,6.791239
Krankenhaus Mechernich,"St.-Elisabeth-Straße 2-6, 53894 Mechernich",418.0,http://www.kkhm.de,"St.-Elisabeth-Straße 2-6, 53894 Mechernich",50.59323,6.65043
Krankenhaus Schleiden,"Am Hähnchen 36, 53937 Schleiden",105.0,http://www.krankenhaus-schleiden.de,"Am Hähnchen 36, 53937 Schleiden",50.5331198,6.4869383
Fachklinik für Psychiatrie und Psychotherapie der MARIENBORN gGmbH,"Luxemburger Straße 1, 53909 Zülpich",175.0,http://www.marienborn-psychiatrie.de,"Luxemburger Straße 1, 53909 Zülpich",50.683995,6.6446433
Hermann-Josef-Krankenhaus,"Tenholter Str. 43, 41812 Erkelenz",409.0,http://www.krankenhaus-erkelenz.de/,"Tenholter Str. 43, 41812 Erkelenz",51.07511,6.31308
ViaNobis - Die Fachklinik am Standort Gangelt,"Katharina-Kasper-Str. 6, 52538 Gangelt",153.0,http://www.vianobis-fachklinik.de,"Katharina-Kasper-Str. 6, 52538 Gangelt",50.9927846,5.9941169
Tagesklinik Heinsberg,"Genneper Str. 2, 52525 Heinsberg",20.0,http://www.vianobis-fachklinik.de,"Genneper Str. 2, 52525 Heinsberg",51.065602,6.0963485
Tagesklinik Erkelenz,"Goswinstr. 28, 41812 Erkelenz",15.0,http://www.vianobis-fachklinik.de,"Goswinstr. 28, 41812 Erkelenz",51.0757931,6.3132812
St. Elisabeth-Krankenhaus Geilenkirchen gemeinnützige Gesellschaft mbH,"Martin-Heyden-Straße 32, 52511 Geilenkirchen",233.0,https://www.krankenhaus-geilenkirchen.de,"Martin-Heyden-Straße 32, 52511 Geilenkirchen",50.96501,6.12341
Städtisches Krankenhaus Heinsberg GmbH,"Auf dem Brand 1, 52525 Heinsberg",187.0,http://www.krankenhaus-heinsberg.de,"Auf dem Brand 1, 52525 Heinsberg",51.06465,6.09535
Katholische Kliniken Oberberg gGmbH,"Wohlandstraße 30, 51766 Engelskirchen",265.0,http://www.k-k-o.de,"Wohlandstraße 30, 51766 Engelskirchen",50.9859234,7.3791407
Kreiskrankenhaus Gummersbach,"Wilhelm-Breckow-Allee 20, 51643 Gummersbach",537.0,http://www.klinikum-oberberg.de,"Wilhelm-Breckow-Allee 20, 51643 Gummersbach",51.0156594,7.5667061
Kreiskrankenhaus Waldbröl,"Dr. Goldenbogenstraße 10, 51545 Waldbröl",320.0,http://www.klinikum-oberberg.de,"Dr. Goldenbogenstraße 10, 51545 Waldbröl",50.8791355,7.6292155
Zentrum für Seelische Gesundheit Marienheide -Klinik Marienheide-,"Leppestraße 65-67, 51709 Marienheide",177.0,http://www.klinikum-oberberg.de,"Leppestraße 65-67, 51709 Marienheide",51.0759984,7.5231773
Sana Krankenhaus Radevormwald,"Siepenstraße 33, 42477 Radevormwald",140.0,https://www.sana-radevormwald.de/home.html,"Siepenstraße 33, 42477 Radevormwald",51.1983928,7.3511242
Blaues Kreuz Diakoniewerk mGmbH - Fachklinik Curt-von-Knobelsdorff-Haus,"Hermannstraße 17, 42477 Radevormwald",14.0,http://www.blaues-kreuz.de,"Hermannstraße 17, 42477 Radevormwald",51.2047466,7.3480991
Marien-Krankenhaus,"Dr. Robert-Koch-Str. 18, 51465 Bergisch Gladbach",543.0,https://www.gfo-kliniken-rhein-berg.de/startseite.html,"Dr. Robert-Koch-Str. 18, 51465 Bergisch Gladbach",50.9923091,7.1286213
Vinzenz Pallotti Hospital,"Vinzenz-Pallotti-Straße 20, 51429 Bergisch-Gladbach-Bensberg",233.0,https://www.gfo-kliniken-rhein-berg.de/startseite.html,"Vinzenz-Pallotti-Straße 20, 51429 Bergisch-Gladbach-Bensberg",50.9618781,7.1750989
Evangelisches Krankenhaus Bergisch Gladbach gGmbH,"Ferrenbergstrasse 24, 51465 Bergisch Gladbach",409.0,http://www.evk.de/,"Ferrenbergstrasse 24, 51465 Bergisch Gladbach",50.9897362,7.138298
Krankenhaus Wermelskirchen GmbH,"Königstraße 100, 42929 Wermelskirchen",200.0,https://www.krankenhaus-wermelskirchen.de/,"Königstraße 100, 42929 Wermelskirchen",51.1348449,7.2217103
Rhein-Klinik,"Luisenstr. 3, 53604 Bad Honnef",94.0,https://www.rhein-klinik.de,"Luisenstr. 3, 53604 Bad Honnef",50.64481,7.22227
St. Franziskus Krankenhaus GmbH,"Hospitalstraße 7, 53783 Eitorf",95.0,https://www.krankenhaus-eitorf.de/,"Hospitalstraße 7, 53783 Eitorf",50.7678195,7.4524143
"GFO Kliniken Troisdorf, Betriebsstätte St. Josef Troisdorf","Hospitalstraße  45, 53840 Troisdorf",324.0,https://www.gfo-kliniken-troisdorf.de,"Hospitalstraße  45, 53840 Troisdorf",50.8178181,7.1593949
GFO Kliniken Troisdorf,"Wilhelm-Busch Str. 9, 53844 Troisdorf",220.0,https://www.gfo-kliniken-troisdorf.de,"Wilhelm-Busch Str. 9, 53844 Troisdorf",50.79745,7.1173401
Tagesklinik Alteburger Straße gGmbH,"Alteburger Straße 8 - 12, 50678 Köln",96.0,http://www.tka-koeln.de,"Alteburger Straße 8 - 12, 50678 Köln",50.9218937,6.9613767
Psychosomatische Klinik Bergisch Gladbach,"Schlodderdicher Weg 23 a, 51469 Bergisch Gladbach",47.0,http://www.klinikum-oberberg.de,"Schlodderdicher Weg 23 a, 51469 Bergisch Gladbach",50.9782457,7.0988049
Tagesklinik Pionierstraße,"Pionierstr. 19, 50735 Köln",1.0,http://www.tagesklinik-pionierstrasse.de,"Pionierstr. 19, 50735 Köln",50.9649521,6.9804717
Rhein-Maas Klinikum,"Mauerfeldchen 25, 52146 Würselen",577.0,http://www.rheinmaasklinikum.de,"Mauerfeldchen 25, 52146 Würselen",50.8151114,6.1429198
Betriebsteil Bardenberg,"Dr. Hans Böckler Platz 1, 52146 Würselen",577.0,http://www.rheinmaasklinikum.de,"Dr. Hans Böckler Platz 1, 52146 Würselen",50.8430488,6.1103151
Augenklinik Dardenne SE,"Friedrich-Ebert-Str. 23-25, 53177 Bonn",21.0,https://www.augenklinik-dardenne.de/,"Friedrich-Ebert-Str. 23-25, 53177 Bonn",50.680482,7.158757
Kliniken der Stadt Köln gGmbH - Krankenhaus Merheim,"Ostmerheimer Str. 200, 51109 Köln",724.0,http://www.kliniken-koeln.de/Krankenhaus_Merheim_Startseite.htm?ActiveID=1558,"Ostmerheimer Str. 200, 51109 Köln",50.9388455,7.0524738
Kliniken Köln gGmbH - Kinderkrankenhaus Amsterdamer Straße,"Amsterdamer Straße 59, 50735 Köln",204.0,http://www.kliniken-koeln.de,"Amsterdamer Straße 59, 50735 Köln",50.9619594,6.9672444
Klinik für Kinder- und Jugendpsychiatrie und Psychotherapie,"Florentine-Eichler-Straße 1, 51067 Köln",78.0,http://www.kliniken-koeln.de,"Florentine-Eichler-Straße 1, 51067 Köln",50.96516,7.05682
Malteser Krankenhaus St. Hildegardis,"Bachemer Straße 29-33, 50931 Köln",233.0,http://www.malteser-krankenhaus-koeln.de,"Bachemer Straße 29-33, 50931 Köln",50.931668,6.9240669
HELIOS Klinikum Siegburg,"Ringstraße 49, 53721 Siegburg",361.0,https://www.helios-gesundheit.de/kliniken/siegburg/,"Ringstraße 49, 53721 Siegburg",50.7989869,7.2065229
Asklepios Klinik Sankt Augustin GmbH,"Arnold-Janssen-Straße 29, 53757 Sankt Augustin",206.0,http://www.asklepios.com/sanktaugustin,"Arnold-Janssen-Straße 29, 53757 Sankt Augustin",50.77522,7.18153
St. Elisabeth-Krankenhaus Jülich,"Kurfürstenstrasse  22, 52428 Jülich",156.0,http://www.krankenhaus-juelich.de/,"Kurfürstenstrasse  22, 52428 Jülich",50.92522,6.36418
Sana Dreifaltigkeits-Krankenhaus Köln,"Aachener Str. 445-449, 50933 Köln",80.0,http://www.dfk-koeln.de,"Aachener Str. 445-449, 50933 Köln",50.9368036,6.9047758
Helios Klinik Wipperfürth,"Alte Kölner Straße 9, 51688 Wipperfürth",131.0,http://www.helios-gesundheit.de/wipperfuerth,"Alte Kölner Straße 9, 51688 Wipperfürth",51.1131052,7.3854592
